{
  "type": "FeatureCollection",
  "features": [
    {
      "type": "Feature",
      "geometry": {
        "type": "Point",
        "coordinates": [
          100.5515862,
          5.5067888
        ]
      },
      "properties": {
        "stop_id": 12002624,
        "stop_code": "MCK0909",
        "stop_name": "Stesen Bas Padang Serai",
        "route_id": "30000089"
      }
    },
    {
      "type": "Feature",
      "geometry": {
        "type": "Point",
        "coordinates": [
          100.5535426,
          5.510374099999999
        ]
      },
      "properties": {
        "stop_id": 12002625,
        "stop_code": "MCK0910",
        "stop_name": "Klinik Kesihatan Padang Serai",
        "route_id": "30000089"
      }
    },
    {
      "type": "Feature",
      "geometry": {
        "type": "Point",
        "coordinates": [
          100.5527057,
          5.5134017
        ]
      },
      "properties": {
        "stop_id": 12002626,
        "stop_code": "MCK0911",
        "stop_name": "PEKAN PADANG SERAI",
        "route_id": "30000089"
      }
    },
    {
      "type": "Feature",
      "geometry": {
        "type": "Point",
        "coordinates": [
          100.549994,
          5.514320099999999
        ]
      },
      "properties": {
        "stop_id": 12002627,
        "stop_code": "MCK0912",
        "stop_name": "Balai Polis Padang Serai",
        "route_id": "30000089"
      }
    },
    {
      "type": "Feature",
      "geometry": {
        "type": "Point",
        "coordinates": [
          100.5453565,
          5.515278599999999
        ]
      },
      "properties": {
        "stop_id": 12002628,
        "stop_code": "MCK0913",
        "stop_name": "PUSAT PERNIAGAAN PADANG SERAI",
        "route_id": "30000089"
      }
    },
    {
      "type": "Feature",
      "geometry": {
        "type": "Point",
        "coordinates": [
          100.541596,
          5.514880799999999
        ]
      },
      "properties": {
        "stop_id": 12002629,
        "stop_code": "MCK0914",
        "stop_name": "TAMAN MAHSURI",
        "route_id": "30000089"
      }
    },
    {
      "type": "Feature",
      "geometry": {
        "type": "Point",
        "coordinates": [
          100.53434870000001,
          5.5134471
        ]
      },
      "properties": {
        "stop_id": 12002630,
        "stop_code": "MCK0915",
        "stop_name": "TAMAN LAGENDA",
        "route_id": "30000089"
      }
    },
    {
      "type": "Feature",
      "geometry": {
        "type": "Point",
        "coordinates": [
          100.52571999999999,
          5.5040867
        ]
      },
      "properties": {
        "stop_id": 12002631,
        "stop_code": "MCK0916",
        "stop_name": "TAMAN SELESA",
        "route_id": "30000089"
      }
    },
    {
      "type": "Feature",
      "geometry": {
        "type": "Point",
        "coordinates": [
          100.5233999,
          5.5019935
        ]
      },
      "properties": {
        "stop_id": 12002632,
        "stop_code": "MCK0917",
        "stop_name": "PUSAT SERENTI KG. SELAMAT",
        "route_id": "30000089"
      }
    },
    {
      "type": "Feature",
      "geometry": {
        "type": "Point",
        "coordinates": [
          100.5219998,
          5.500551799999999
        ]
      },
      "properties": {
        "stop_id": 12002633,
        "stop_code": "MCK0918",
        "stop_name": "Balai Bomba Kampung Selamat",
        "route_id": "30000089"
      }
    },
    {
      "type": "Feature",
      "geometry": {
        "type": "Point",
        "coordinates": [
          100.5209,
          5.49921
        ]
      },
      "properties": {
        "stop_id": 12000644,
        "stop_code": "MCK0644",
        "stop_name": "SMK Kg Selamat",
        "route_id": "30000089"
      }
    },
    {
      "type": "Feature",
      "geometry": {
        "type": "Point",
        "coordinates": [
          100.51321,
          5.49587
        ]
      },
      "properties": {
        "stop_id": 12000650,
        "stop_code": "MCK0650",
        "stop_name": "Kampung Selamat I",
        "route_id": "30000089"
      }
    },
    {
      "type": "Feature",
      "geometry": {
        "type": "Point",
        "coordinates": [
          100.50822,
          5.49319
        ]
      },
      "properties": {
        "stop_id": 12000649,
        "stop_code": "MCK0649",
        "stop_name": "Kampung Selamat II",
        "route_id": "30000089"
      }
    },
    {
      "type": "Feature",
      "geometry": {
        "type": "Point",
        "coordinates": [
          100.50533,
          5.48874
        ]
      },
      "properties": {
        "stop_id": 12000648,
        "stop_code": "MCK0648",
        "stop_name": "Kampung Selamat III",
        "route_id": "30000089"
      }
    },
    {
      "type": "Feature",
      "geometry": {
        "type": "Point",
        "coordinates": [
          100.50388000000001,
          5.48401
        ]
      },
      "properties": {
        "stop_id": 12000647,
        "stop_code": "MCK0647",
        "stop_name": "Kampung Besar",
        "route_id": "30000089"
      }
    },
    {
      "type": "Feature",
      "geometry": {
        "type": "Point",
        "coordinates": [
          100.50438,
          5.48005
        ]
      },
      "properties": {
        "stop_id": 12000646,
        "stop_code": "MCK0646",
        "stop_name": "Taman Bakawali",
        "route_id": "30000089"
      }
    },
    {
      "type": "Feature",
      "geometry": {
        "type": "Point",
        "coordinates": [
          100.50137,
          5.47844
        ]
      },
      "properties": {
        "stop_id": 12000645,
        "stop_code": "MCK0645",
        "stop_name": "Kampung Master",
        "route_id": "30000089"
      }
    },
    {
      "type": "Feature",
      "geometry": {
        "type": "Point",
        "coordinates": [
          100.49436999999999,
          5.48184
        ]
      },
      "properties": {
        "stop_id": 12000508,
        "stop_code": "MBM0508",
        "stop_name": "Pejabat Pos Tasek Gelugor",
        "route_id": "30000089"
      }
    },
    {
      "type": "Feature",
      "geometry": {
        "type": "Point",
        "coordinates": [
          100.49185,
          5.48305
        ]
      },
      "properties": {
        "stop_id": 12000488,
        "stop_code": "MBM0488",
        "stop_name": "SK Tasek Gelugor",
        "route_id": "30000089"
      }
    },
    {
      "type": "Feature",
      "geometry": {
        "type": "Point",
        "coordinates": [
          100.4897,
          5.48402
        ]
      },
      "properties": {
        "stop_id": 12000489,
        "stop_code": "MBM0489",
        "stop_name": "Pusat Komersial",
        "route_id": "30000089"
      }
    },
    {
      "type": "Feature",
      "geometry": {
        "type": "Point",
        "coordinates": [
          100.48759,
          5.48454
        ]
      },
      "properties": {
        "stop_id": 12000491,
        "stop_code": "MBM0491",
        "stop_name": "Petronas Tasek Gelugor",
        "route_id": "30000089"
      }
    },
    {
      "type": "Feature",
      "geometry": {
        "type": "Point",
        "coordinates": [
          100.48454,
          5.48519
        ]
      },
      "properties": {
        "stop_id": 12000493,
        "stop_code": "MBM0493",
        "stop_name": "Taman Gelugor Indah",
        "route_id": "30000089"
      }
    },
    {
      "type": "Feature",
      "geometry": {
        "type": "Point",
        "coordinates": [
          100.4778,
          5.48712
        ]
      },
      "properties": {
        "stop_id": 12000496,
        "stop_code": "MBM0496",
        "stop_name": "Kg Air Melintas Besar",
        "route_id": "30000089"
      }
    },
    {
      "type": "Feature",
      "geometry": {
        "type": "Point",
        "coordinates": [
          100.4753,
          5.48778
        ]
      },
      "properties": {
        "stop_id": 12000497,
        "stop_code": "MBM0497",
        "stop_name": "Masjid Pokok Macang",
        "route_id": "30000089"
      }
    },
    {
      "type": "Feature",
      "geometry": {
        "type": "Point",
        "coordinates": [
          100.47266,
          5.48816
        ]
      },
      "properties": {
        "stop_id": 12000498,
        "stop_code": "MBM0498",
        "stop_name": "KEMAS Pokok Macang",
        "route_id": "30000089"
      }
    },
    {
      "type": "Feature",
      "geometry": {
        "type": "Point",
        "coordinates": [
          100.47059,
          5.48854
        ]
      },
      "properties": {
        "stop_id": 12000501,
        "stop_code": "MBM0501",
        "stop_name": "Tali Air Pokok Macang",
        "route_id": "30000089"
      }
    },
    {
      "type": "Feature",
      "geometry": {
        "type": "Point",
        "coordinates": [
          100.46866999999999,
          5.4888900000000005
        ]
      },
      "properties": {
        "stop_id": 12000503,
        "stop_code": "MBM0503",
        "stop_name": "Dewan Seri Pokok Macang",
        "route_id": "30000089"
      }
    },
    {
      "type": "Feature",
      "geometry": {
        "type": "Point",
        "coordinates": [
          100.4635,
          5.48897
        ]
      },
      "properties": {
        "stop_id": 12000506,
        "stop_code": "MBM0506",
        "stop_name": "Taman Desa Sena",
        "route_id": "30000089"
      }
    },
    {
      "type": "Feature",
      "geometry": {
        "type": "Point",
        "coordinates": [
          100.46059,
          5.48891
        ]
      },
      "properties": {
        "stop_id": 12000504,
        "stop_code": "MBM0504",
        "stop_name": "Pejabat Veterinar",
        "route_id": "30000089"
      }
    },
    {
      "type": "Feature",
      "geometry": {
        "type": "Point",
        "coordinates": [
          100.45854,
          5.4888699999999995
        ]
      },
      "properties": {
        "stop_id": 12000502,
        "stop_code": "MBM0502",
        "stop_name": "Taman Sena Jaya 1",
        "route_id": "30000089"
      }
    },
    {
      "type": "Feature",
      "geometry": {
        "type": "Point",
        "coordinates": [
          100.45754000000001,
          5.48384
        ]
      },
      "properties": {
        "stop_id": 12001558,
        "stop_code": "MGX1558",
        "stop_name": "Pokok Sena",
        "route_id": "30000089"
      }
    },
    {
      "type": "Feature",
      "geometry": {
        "type": "Point",
        "coordinates": [
          100.4575,
          5.47935
        ]
      },
      "properties": {
        "stop_id": 12001556,
        "stop_code": "MGX1556",
        "stop_name": "Taman Pokok Sena Indah",
        "route_id": "30000089"
      }
    },
    {
      "type": "Feature",
      "geometry": {
        "type": "Point",
        "coordinates": [
          100.45748,
          5.4747900000000005
        ]
      },
      "properties": {
        "stop_id": 12001555,
        "stop_code": "MGX1555",
        "stop_name": "Lubuk Meriam",
        "route_id": "30000089"
      }
    },
    {
      "type": "Feature",
      "geometry": {
        "type": "Point",
        "coordinates": [
          100.45682,
          5.4691
        ]
      },
      "properties": {
        "stop_id": 12001553,
        "stop_code": "MGX1553",
        "stop_name": "Simpang Lahar Yooi",
        "route_id": "30000089"
      }
    },
    {
      "type": "Feature",
      "geometry": {
        "type": "Point",
        "coordinates": [
          100.45581999999999,
          5.46787
        ]
      },
      "properties": {
        "stop_id": 12001551,
        "stop_code": "MGX1551",
        "stop_name": "SK Lahar Yooi",
        "route_id": "30000089"
      }
    },
    {
      "type": "Feature",
      "geometry": {
        "type": "Point",
        "coordinates": [
          100.45441,
          5.46622
        ]
      },
      "properties": {
        "stop_id": 12001549,
        "stop_code": "MGX1549",
        "stop_name": "Nyior Sebatang",
        "route_id": "30000089"
      }
    },
    {
      "type": "Feature",
      "geometry": {
        "type": "Point",
        "coordinates": [
          100.44818000000001,
          5.46042
        ]
      },
      "properties": {
        "stop_id": 12001547,
        "stop_code": "MGX1547",
        "stop_name": "Masjid Nyior Sebatang",
        "route_id": "30000089"
      }
    },
    {
      "type": "Feature",
      "geometry": {
        "type": "Point",
        "coordinates": [
          100.4427227,
          5.4564473
        ]
      },
      "properties": {
        "stop_id": 12002117,
        "stop_code": "MGX1544",
        "stop_name": "(M2) Taman Merbau Jaya",
        "route_id": "30000089"
      }
    },
    {
      "type": "Feature",
      "geometry": {
        "type": "Point",
        "coordinates": [
          100.44108,
          5.45526
        ]
      },
      "properties": {
        "stop_id": 12001543,
        "stop_code": "MGX1543",
        "stop_name": "Taman Seri Merbau",
        "route_id": "30000089"
      }
    },
    {
      "type": "Feature",
      "geometry": {
        "type": "Point",
        "coordinates": [
          100.43755999999999,
          5.453180000000001
        ]
      },
      "properties": {
        "stop_id": 12001541,
        "stop_code": "MGX1541",
        "stop_name": "Taman Merbau Indah",
        "route_id": "30000089"
      }
    },
    {
      "type": "Feature",
      "geometry": {
        "type": "Point",
        "coordinates": [
          100.43259,
          5.4491
        ]
      },
      "properties": {
        "stop_id": 12001530,
        "stop_code": "MGX1530",
        "stop_name": "SK Sungai Dua",
        "route_id": "30000089"
      }
    },
    {
      "type": "Feature",
      "geometry": {
        "type": "Point",
        "coordinates": [
          100.43056999999999,
          5.44643
        ]
      },
      "properties": {
        "stop_id": 12001522,
        "stop_code": "MGX1522",
        "stop_name": "Taman Seri Murni",
        "route_id": "30000089"
      }
    },
    {
      "type": "Feature",
      "geometry": {
        "type": "Point",
        "coordinates": [
          100.42854,
          5.44494
        ]
      },
      "properties": {
        "stop_id": 12001513,
        "stop_code": "MGX1513",
        "stop_name": "Masjid Sungai Dua",
        "route_id": "30000089"
      }
    },
    {
      "type": "Feature",
      "geometry": {
        "type": "Point",
        "coordinates": [
          100.42716,
          5.44524
        ]
      },
      "properties": {
        "stop_id": 12001517,
        "stop_code": "MGX1517",
        "stop_name": "Sungai Dua Utama",
        "route_id": "30000089"
      }
    },
    {
      "type": "Feature",
      "geometry": {
        "type": "Point",
        "coordinates": [
          100.42498,
          5.44548
        ]
      },
      "properties": {
        "stop_id": 12001518,
        "stop_code": "MGX1518",
        "stop_name": "Taman Sungai Dua",
        "route_id": "30000089"
      }
    },
    {
      "type": "Feature",
      "geometry": {
        "type": "Point",
        "coordinates": [
          100.42215,
          5.446280000000001
        ]
      },
      "properties": {
        "stop_id": 12001520,
        "stop_code": "MGX1520",
        "stop_name": "Sungai Dua",
        "route_id": "30000089"
      }
    },
    {
      "type": "Feature",
      "geometry": {
        "type": "Point",
        "coordinates": [
          100.41186,
          5.44909
        ]
      },
      "properties": {
        "stop_id": 12001527,
        "stop_code": "MGX1527",
        "stop_name": "Petronas Sg.Lokan",
        "route_id": "30000089"
      }
    },
    {
      "type": "Feature",
      "geometry": {
        "type": "Point",
        "coordinates": [
          100.40849,
          5.44991
        ]
      },
      "properties": {
        "stop_id": 12001531,
        "stop_code": "MGX1531",
        "stop_name": "Masjid Sg Lokan",
        "route_id": "30000089"
      }
    },
    {
      "type": "Feature",
      "geometry": {
        "type": "Point",
        "coordinates": [
          100.40553,
          5.45047
        ]
      },
      "properties": {
        "stop_id": 12001534,
        "stop_code": "MGX1534",
        "stop_name": "Masjid Alor Merah",
        "route_id": "30000089"
      }
    },
    {
      "type": "Feature",
      "geometry": {
        "type": "Point",
        "coordinates": [
          100.40347,
          5.45068
        ]
      },
      "properties": {
        "stop_id": 12001537,
        "stop_code": "MGX1537",
        "stop_name": "Alor Merah",
        "route_id": "30000089"
      }
    },
    {
      "type": "Feature",
      "geometry": {
        "type": "Point",
        "coordinates": [
          100.40146999999999,
          5.45055
        ]
      },
      "properties": {
        "stop_id": 12001594,
        "stop_code": "MHB1594",
        "stop_name": "Pekan Maklom",
        "route_id": "30000089"
      }
    },
    {
      "type": "Feature",
      "geometry": {
        "type": "Point",
        "coordinates": [
          100.39957,
          5.44968
        ]
      },
      "properties": {
        "stop_id": 12001593,
        "stop_code": "MHB1593",
        "stop_name": "(M2) Taman Seri Pinang",
        "route_id": "30000089"
      }
    },
    {
      "type": "Feature",
      "geometry": {
        "type": "Point",
        "coordinates": [
          100.39716999999999,
          5.44872
        ]
      },
      "properties": {
        "stop_id": 12002550,
        "stop_code": "ICT0707",
        "stop_name": "Pekan Sg. Puyu",
        "route_id": "30000089"
      }
    },
    {
      "type": "Feature",
      "geometry": {
        "type": "Point",
        "coordinates": [
          100.39609300000001,
          5.447873
        ]
      },
      "properties": {
        "stop_id": 12002392,
        "stop_code": "ICT036",
        "stop_name": "Bengkel Kimpalan Sungai Puyu",
        "route_id": "30000089"
      }
    },
    {
      "type": "Feature",
      "geometry": {
        "type": "Point",
        "coordinates": [
          100.38148000000001,
          5.44083
        ]
      },
      "properties": {
        "stop_id": 12000098,
        "stop_code": "M0U0098",
        "stop_name": "Pasar Awam",
        "route_id": "30000089"
      }
    },
    {
      "type": "Feature",
      "geometry": {
        "type": "Point",
        "coordinates": [
          100.38134000000001,
          5.4393519999999995
        ]
      },
      "properties": {
        "stop_id": 12002551,
        "stop_code": "ICT0708",
        "stop_name": "Tesco Bagan Ajam",
        "route_id": "30000089"
      }
    },
    {
      "type": "Feature",
      "geometry": {
        "type": "Point",
        "coordinates": [
          100.38041,
          5.43622
        ]
      },
      "properties": {
        "stop_id": 12000094,
        "stop_code": "M0U0094",
        "stop_name": "Taman Bagan Ajam",
        "route_id": "30000089"
      }
    },
    {
      "type": "Feature",
      "geometry": {
        "type": "Point",
        "coordinates": [
          100.37853,
          5.4318800000000005
        ]
      },
      "properties": {
        "stop_id": 12000092,
        "stop_code": "M0U0092",
        "stop_name": "SK Bagan Jermal",
        "route_id": "30000089"
      }
    },
    {
      "type": "Feature",
      "geometry": {
        "type": "Point",
        "coordinates": [
          100.37746,
          5.42831
        ]
      },
      "properties": {
        "stop_id": 12000091,
        "stop_code": "M0U0091",
        "stop_name": "Jabatan Pertahanan Awam",
        "route_id": "30000089"
      }
    },
    {
      "type": "Feature",
      "geometry": {
        "type": "Point",
        "coordinates": [
          100.37624,
          5.42368
        ]
      },
      "properties": {
        "stop_id": 12000088,
        "stop_code": "M0U0088",
        "stop_name": "Taman Riang",
        "route_id": "30000089"
      }
    },
    {
      "type": "Feature",
      "geometry": {
        "type": "Point",
        "coordinates": [
          100.37489000000001,
          5.419630000000001
        ]
      },
      "properties": {
        "stop_id": 12000605,
        "stop_code": "MCD0605",
        "stop_name": "Masjid Kubang Buaya",
        "route_id": "30000089"
      }
    },
    {
      "type": "Feature",
      "geometry": {
        "type": "Point",
        "coordinates": [
          100.37396,
          5.41755
        ]
      },
      "properties": {
        "stop_id": 12000603,
        "stop_code": "MCD0603",
        "stop_name": "Wisma Peladang",
        "route_id": "30000089"
      }
    },
    {
      "type": "Feature",
      "geometry": {
        "type": "Point",
        "coordinates": [
          100.37302,
          5.41552
        ]
      },
      "properties": {
        "stop_id": 12000601,
        "stop_code": "MCD0601",
        "stop_name": "SJKC Chung Hwa Pusat",
        "route_id": "30000089"
      }
    },
    {
      "type": "Feature",
      "geometry": {
        "type": "Point",
        "coordinates": [
          100.37040999999999,
          5.40855
        ]
      },
      "properties": {
        "stop_id": 12000124,
        "stop_code": "M0X0124",
        "stop_name": "Dataran Pemuda Merdeka",
        "route_id": "30000089"
      }
    },
    {
      "type": "Feature",
      "geometry": {
        "type": "Point",
        "coordinates": [
          100.36934000000001,
          5.40525
        ]
      },
      "properties": {
        "stop_id": 12000122,
        "stop_code": "M0X0122",
        "stop_name": "Jabatan Pertanian",
        "route_id": "30000089"
      }
    },
    {
      "type": "Feature",
      "geometry": {
        "type": "Point",
        "coordinates": [
          100.3683,
          5.4003
        ]
      },
      "properties": {
        "stop_id": 12000121,
        "stop_code": "M0X0121",
        "stop_name": "Taman Selat",
        "route_id": "30000089"
      }
    },
    {
      "type": "Feature",
      "geometry": {
        "type": "Point",
        "coordinates": [
          100.367789,
          5.3977580000000005
        ]
      },
      "properties": {
        "stop_id": 12002549,
        "stop_code": "ICT0706",
        "stop_name": "Maybank Butterworth",
        "route_id": "30000089"
      }
    },
    {
      "type": "Feature",
      "geometry": {
        "type": "Point",
        "coordinates": [
          100.3653495,
          5.3948602
        ]
      },
      "properties": {
        "stop_id": 12002322,
        "stop_code": "MEM0973",
        "stop_name": "(M1) Penang Sentral",
        "route_id": "30000089"
      }
    },
    {
      "type": "Feature",
      "geometry": {
        "type": "Point",
        "coordinates": [
          100.36809000000001,
          5.40005
        ]
      },
      "properties": {
        "stop_id": 12000120,
        "stop_code": "M0X0120",
        "stop_name": "Taman Selat",
        "route_id": "30000089"
      }
    },
    {
      "type": "Feature",
      "geometry": {
        "type": "Point",
        "coordinates": [
          100.36949,
          5.40636
        ]
      },
      "properties": {
        "stop_id": 12000123,
        "stop_code": "M0X0123",
        "stop_name": "Pejabat Kesihatan SPU",
        "route_id": "30000089"
      }
    },
    {
      "type": "Feature",
      "geometry": {
        "type": "Point",
        "coordinates": [
          100.37083,
          5.41006
        ]
      },
      "properties": {
        "stop_id": 12000125,
        "stop_code": "M0X0125",
        "stop_name": "Public Mutual Bagan Luar",
        "route_id": "30000089"
      }
    },
    {
      "type": "Feature",
      "geometry": {
        "type": "Point",
        "coordinates": [
          100.37227,
          5.41406
        ]
      },
      "properties": {
        "stop_id": 12000600,
        "stop_code": "MCD0600",
        "stop_name": "Kampung Gajah",
        "route_id": "30000089"
      }
    },
    {
      "type": "Feature",
      "geometry": {
        "type": "Point",
        "coordinates": [
          100.37329,
          5.41634
        ]
      },
      "properties": {
        "stop_id": 12000602,
        "stop_code": "MCD0602",
        "stop_name": "SJKC Chung Hwa Pusat",
        "route_id": "30000089"
      }
    },
    {
      "type": "Feature",
      "geometry": {
        "type": "Point",
        "coordinates": [
          100.37469,
          5.41944
        ]
      },
      "properties": {
        "stop_id": 12000604,
        "stop_code": "MCD0604",
        "stop_name": "Masjid Kubang Buaya",
        "route_id": "30000089"
      }
    },
    {
      "type": "Feature",
      "geometry": {
        "type": "Point",
        "coordinates": [
          100.37588000000001,
          5.42287
        ]
      },
      "properties": {
        "stop_id": 12000606,
        "stop_code": "MCD0606",
        "stop_name": "Taman Riang",
        "route_id": "30000089"
      }
    },
    {
      "type": "Feature",
      "geometry": {
        "type": "Point",
        "coordinates": [
          100.37694,
          5.4268
        ]
      },
      "properties": {
        "stop_id": 12000089,
        "stop_code": "M0U0089",
        "stop_name": "Taman Bagan Jermal",
        "route_id": "30000089"
      }
    },
    {
      "type": "Feature",
      "geometry": {
        "type": "Point",
        "coordinates": [
          100.37727,
          5.428
        ]
      },
      "properties": {
        "stop_id": 12000090,
        "stop_code": "M0U0090",
        "stop_name": "Mahkamah Majistret",
        "route_id": "30000089"
      }
    },
    {
      "type": "Feature",
      "geometry": {
        "type": "Point",
        "coordinates": [
          100.378297,
          5.431374
        ]
      },
      "properties": {
        "stop_id": 12002544,
        "stop_code": "ICT0701",
        "stop_name": "SK Bagan Jermal",
        "route_id": "30000089"
      }
    },
    {
      "type": "Feature",
      "geometry": {
        "type": "Point",
        "coordinates": [
          100.37948,
          5.43435
        ]
      },
      "properties": {
        "stop_id": 12000093,
        "stop_code": "M0U0093",
        "stop_name": "Taman Bagan Ajam",
        "route_id": "30000089"
      }
    },
    {
      "type": "Feature",
      "geometry": {
        "type": "Point",
        "coordinates": [
          100.38075,
          5.437790000000001
        ]
      },
      "properties": {
        "stop_id": 12000095,
        "stop_code": "M0U0095",
        "stop_name": "Taman Molek",
        "route_id": "30000089"
      }
    },
    {
      "type": "Feature",
      "geometry": {
        "type": "Point",
        "coordinates": [
          100.38123,
          5.43996
        ]
      },
      "properties": {
        "stop_id": 12000097,
        "stop_code": "M0U0097",
        "stop_name": "Tesco Bagan Ajam",
        "route_id": "30000089"
      }
    },
    {
      "type": "Feature",
      "geometry": {
        "type": "Point",
        "coordinates": [
          100.38258,
          5.44303
        ]
      },
      "properties": {
        "stop_id": 12001997,
        "stop_code": "MJN1997",
        "stop_name": "Taman Meranti",
        "route_id": "30000089"
      }
    },
    {
      "type": "Feature",
      "geometry": {
        "type": "Point",
        "coordinates": [
          100.394684,
          5.447628
        ]
      },
      "properties": {
        "stop_id": 12001590,
        "stop_code": "MHB1590",
        "stop_name": "Masjid Jamek Sungai Puyu",
        "route_id": "30000089"
      }
    },
    {
      "type": "Feature",
      "geometry": {
        "type": "Point",
        "coordinates": [
          100.39698,
          5.44873
        ]
      },
      "properties": {
        "stop_id": 12001591,
        "stop_code": "MHB1591",
        "stop_name": "Pekan Sungai Puyu",
        "route_id": "30000089"
      }
    },
    {
      "type": "Feature",
      "geometry": {
        "type": "Point",
        "coordinates": [
          100.39922,
          5.449669999999999
        ]
      },
      "properties": {
        "stop_id": 12001592,
        "stop_code": "MHB1592",
        "stop_name": "(M3) Taman Seri Pinang",
        "route_id": "30000089"
      }
    },
    {
      "type": "Feature",
      "geometry": {
        "type": "Point",
        "coordinates": [
          100.40128,
          5.45056
        ]
      },
      "properties": {
        "stop_id": 12001595,
        "stop_code": "MHB1595",
        "stop_name": "Pekan Maklom",
        "route_id": "30000089"
      }
    },
    {
      "type": "Feature",
      "geometry": {
        "type": "Point",
        "coordinates": [
          100.40326,
          5.45075
        ]
      },
      "properties": {
        "stop_id": 12001539,
        "stop_code": "MGX1539",
        "stop_name": "Alor Merah",
        "route_id": "30000089"
      }
    },
    {
      "type": "Feature",
      "geometry": {
        "type": "Point",
        "coordinates": [
          100.40517,
          5.45055
        ]
      },
      "properties": {
        "stop_id": 12001536,
        "stop_code": "MGX1536",
        "stop_name": "Masjid Alor Merah",
        "route_id": "30000089"
      }
    },
    {
      "type": "Feature",
      "geometry": {
        "type": "Point",
        "coordinates": [
          100.40833,
          5.45003
        ]
      },
      "properties": {
        "stop_id": 12001533,
        "stop_code": "MGX1533",
        "stop_name": "Masjid Sungai Lokan",
        "route_id": "30000089"
      }
    },
    {
      "type": "Feature",
      "geometry": {
        "type": "Point",
        "coordinates": [
          100.41203,
          5.4491
        ]
      },
      "properties": {
        "stop_id": 12001529,
        "stop_code": "MGX1529",
        "stop_name": "Petronas Sg. Lokan",
        "route_id": "30000089"
      }
    },
    {
      "type": "Feature",
      "geometry": {
        "type": "Point",
        "coordinates": [
          100.41399,
          5.44855
        ]
      },
      "properties": {
        "stop_id": 12001525,
        "stop_code": "MGX1525",
        "stop_name": "Hadapan Stesen Minyak Shell",
        "route_id": "30000089"
      }
    },
    {
      "type": "Feature",
      "geometry": {
        "type": "Point",
        "coordinates": [
          100.42209,
          5.4463
        ]
      },
      "properties": {
        "stop_id": 12001521,
        "stop_code": "MGX1521",
        "stop_name": "Kampung Teluk Sungai Dua",
        "route_id": "30000089"
      }
    },
    {
      "type": "Feature",
      "geometry": {
        "type": "Point",
        "coordinates": [
          100.42712,
          5.44524
        ]
      },
      "properties": {
        "stop_id": 12001516,
        "stop_code": "MGX1516",
        "stop_name": "Taman Sungai Dua Utama",
        "route_id": "30000089"
      }
    },
    {
      "type": "Feature",
      "geometry": {
        "type": "Point",
        "coordinates": [
          100.427986,
          5.445198
        ]
      },
      "properties": {
        "stop_id": 12001514,
        "stop_code": "MGX1514",
        "stop_name": "Masjid Sungai Dua",
        "route_id": "30000089"
      }
    },
    {
      "type": "Feature",
      "geometry": {
        "type": "Point",
        "coordinates": [
          100.43059000000001,
          5.446587999999999
        ]
      },
      "properties": {
        "stop_id": 12001523,
        "stop_code": "MGX1523",
        "stop_name": "Pekan Sungai Dua",
        "route_id": "30000089"
      }
    },
    {
      "type": "Feature",
      "geometry": {
        "type": "Point",
        "coordinates": [
          100.432,
          5.448580000000001
        ]
      },
      "properties": {
        "stop_id": 12001526,
        "stop_code": "MGX1526",
        "stop_name": "SK Sungai Dua",
        "route_id": "30000089"
      }
    },
    {
      "type": "Feature",
      "geometry": {
        "type": "Point",
        "coordinates": [
          100.436775,
          5.452975
        ]
      },
      "properties": {
        "stop_id": 12001540,
        "stop_code": "MGX1540",
        "stop_name": "Masjid Al Marbawi",
        "route_id": "30000089"
      }
    },
    {
      "type": "Feature",
      "geometry": {
        "type": "Point",
        "coordinates": [
          100.44055,
          5.455008
        ]
      },
      "properties": {
        "stop_id": 12001542,
        "stop_code": "MGX1542",
        "stop_name": "Taman Seri Merbau",
        "route_id": "30000089"
      }
    },
    {
      "type": "Feature",
      "geometry": {
        "type": "Point",
        "coordinates": [
          100.44268000000001,
          5.45655
        ]
      },
      "properties": {
        "stop_id": 12001545,
        "stop_code": "MGX1545",
        "stop_name": "(M3) Taman Merbau Jaya",
        "route_id": "30000089"
      }
    },
    {
      "type": "Feature",
      "geometry": {
        "type": "Point",
        "coordinates": [
          100.44458,
          5.457902
        ]
      },
      "properties": {
        "stop_id": 12001546,
        "stop_code": "MGX1546",
        "stop_name": "Lorong Haji Din",
        "route_id": "30000089"
      }
    },
    {
      "type": "Feature",
      "geometry": {
        "type": "Point",
        "coordinates": [
          100.44891,
          5.46106
        ]
      },
      "properties": {
        "stop_id": 12001548,
        "stop_code": "MGX1548",
        "stop_name": "Masjid Nyior Sebatang",
        "route_id": "30000089"
      }
    },
    {
      "type": "Feature",
      "geometry": {
        "type": "Point",
        "coordinates": [
          100.45461999999999,
          5.46652
        ]
      },
      "properties": {
        "stop_id": 12001550,
        "stop_code": "MGX1550",
        "stop_name": "Nyior Sebatang",
        "route_id": "30000089"
      }
    },
    {
      "type": "Feature",
      "geometry": {
        "type": "Point",
        "coordinates": [
          100.45597,
          5.468138
        ]
      },
      "properties": {
        "stop_id": 12001552,
        "stop_code": "MGX1552",
        "stop_name": "SK Lahar Yooi",
        "route_id": "30000089"
      }
    },
    {
      "type": "Feature",
      "geometry": {
        "type": "Point",
        "coordinates": [
          100.45741,
          5.4743699999999995
        ]
      },
      "properties": {
        "stop_id": 12001554,
        "stop_code": "MGX1554",
        "stop_name": "Lubuk Meriam",
        "route_id": "30000089"
      }
    },
    {
      "type": "Feature",
      "geometry": {
        "type": "Point",
        "coordinates": [
          100.45745,
          5.47957
        ]
      },
      "properties": {
        "stop_id": 12001557,
        "stop_code": "MGX1557",
        "stop_name": "Taman Pokok Sena Indah",
        "route_id": "30000089"
      }
    },
    {
      "type": "Feature",
      "geometry": {
        "type": "Point",
        "coordinates": [
          100.45747,
          5.48456
        ]
      },
      "properties": {
        "stop_id": 12001559,
        "stop_code": "MGX1559",
        "stop_name": "Pokok Sena",
        "route_id": "30000089"
      }
    },
    {
      "type": "Feature",
      "geometry": {
        "type": "Point",
        "coordinates": [
          100.46307,
          5.48904
        ]
      },
      "properties": {
        "stop_id": 12000507,
        "stop_code": "MBM0507",
        "stop_name": "Taman Desa Sena",
        "route_id": "30000089"
      }
    },
    {
      "type": "Feature",
      "geometry": {
        "type": "Point",
        "coordinates": [
          100.46866,
          5.48895
        ]
      },
      "properties": {
        "stop_id": 12000505,
        "stop_code": "MBM0505",
        "stop_name": "Dewan Sri Pokok Macang",
        "route_id": "30000089"
      }
    },
    {
      "type": "Feature",
      "geometry": {
        "type": "Point",
        "coordinates": [
          100.47104,
          5.48851
        ]
      },
      "properties": {
        "stop_id": 12000500,
        "stop_code": "MBM0500",
        "stop_name": "Tali Air Pokok Macang",
        "route_id": "30000089"
      }
    },
    {
      "type": "Feature",
      "geometry": {
        "type": "Point",
        "coordinates": [
          100.47298,
          5.48819
        ]
      },
      "properties": {
        "stop_id": 12000499,
        "stop_code": "MBM0499",
        "stop_name": "KEMAS Pokok Macang",
        "route_id": "30000089"
      }
    },
    {
      "type": "Feature",
      "geometry": {
        "type": "Point",
        "coordinates": [
          100.47806,
          5.48707
        ]
      },
      "properties": {
        "stop_id": 12000495,
        "stop_code": "MBM0495",
        "stop_name": "Kg Air Melintas Besar",
        "route_id": "30000089"
      }
    },
    {
      "type": "Feature",
      "geometry": {
        "type": "Point",
        "coordinates": [
          100.48479,
          5.4852099999999995
        ]
      },
      "properties": {
        "stop_id": 12000494,
        "stop_code": "MBM0494",
        "stop_name": "Taman Gelugor indah",
        "route_id": "30000089"
      }
    },
    {
      "type": "Feature",
      "geometry": {
        "type": "Point",
        "coordinates": [
          100.48724,
          5.484716000000001
        ]
      },
      "properties": {
        "stop_id": 12000492,
        "stop_code": "MBM0492",
        "stop_name": "Permatang Berangan C",
        "route_id": "30000089"
      }
    },
    {
      "type": "Feature",
      "geometry": {
        "type": "Point",
        "coordinates": [
          100.48904,
          5.484312999999999
        ]
      },
      "properties": {
        "stop_id": 12000490,
        "stop_code": "MBM0490",
        "stop_name": "Pusat Komersial Tasek Gelugor",
        "route_id": "30000089"
      }
    },
    {
      "type": "Feature",
      "geometry": {
        "type": "Point",
        "coordinates": [
          100.49216,
          5.48298
        ]
      },
      "properties": {
        "stop_id": 12000487,
        "stop_code": "MBM0487",
        "stop_name": "SK Tasek Gelugor",
        "route_id": "30000089"
      }
    },
    {
      "type": "Feature",
      "geometry": {
        "type": "Point",
        "coordinates": [
          100.49468,
          5.48172
        ]
      },
      "properties": {
        "stop_id": 12000486,
        "stop_code": "MBM0486",
        "stop_name": "Kompleks Tasek Gelugor",
        "route_id": "30000089"
      }
    },
    {
      "type": "Feature",
      "geometry": {
        "type": "Point",
        "coordinates": [
          100.50046999999999,
          5.47878
        ]
      },
      "properties": {
        "stop_id": 12000484,
        "stop_code": "MBM0484",
        "stop_name": "Kampung Master",
        "route_id": "30000089"
      }
    },
    {
      "type": "Feature",
      "geometry": {
        "type": "Point",
        "coordinates": [
          100.50426,
          5.4802480000000005
        ]
      },
      "properties": {
        "stop_id": 12000639,
        "stop_code": "MCK0639",
        "stop_name": "Taman Kemaju",
        "route_id": "30000089"
      }
    },
    {
      "type": "Feature",
      "geometry": {
        "type": "Point",
        "coordinates": [
          100.50381999999999,
          5.48453
        ]
      },
      "properties": {
        "stop_id": 12000640,
        "stop_code": "MCK0640",
        "stop_name": "Kampung Besar",
        "route_id": "30000089"
      }
    },
    {
      "type": "Feature",
      "geometry": {
        "type": "Point",
        "coordinates": [
          100.50391,
          5.48572
        ]
      },
      "properties": {
        "stop_id": 12000641,
        "stop_code": "MCK0641",
        "stop_name": "Taman Sri Desa",
        "route_id": "30000089"
      }
    },
    {
      "type": "Feature",
      "geometry": {
        "type": "Point",
        "coordinates": [
          100.50885,
          5.493930000000001
        ]
      },
      "properties": {
        "stop_id": 12000642,
        "stop_code": "MCK0642",
        "stop_name": "Kampung Selamat I",
        "route_id": "30000089"
      }
    },
    {
      "type": "Feature",
      "geometry": {
        "type": "Point",
        "coordinates": [
          100.51966,
          5.49828
        ]
      },
      "properties": {
        "stop_id": 12000643,
        "stop_code": "MCK0643",
        "stop_name": "SK Kg Selamat",
        "route_id": "30000089"
      }
    },
    {
      "type": "Feature",
      "geometry": {
        "type": "Point",
        "coordinates": [
          100.5205353,
          5.4991742
        ]
      },
      "properties": {
        "stop_id": 12002611,
        "stop_code": "MCK0900",
        "stop_name": "SMK Kampung Selamat",
        "route_id": "30000089"
      }
    },
    {
      "type": "Feature",
      "geometry": {
        "type": "Point",
        "coordinates": [
          100.52147409999999,
          5.5002047
        ]
      },
      "properties": {
        "stop_id": 12002612,
        "stop_code": "MCK0901",
        "stop_name": "Balai Bomba Kampung Selamat",
        "route_id": "30000089"
      }
    },
    {
      "type": "Feature",
      "geometry": {
        "type": "Point",
        "coordinates": [
          100.52302440000001,
          5.5017693
        ]
      },
      "properties": {
        "stop_id": 12002613,
        "stop_code": "MCK0902",
        "stop_name": "Pusat Serenti Kampung Selamat",
        "route_id": "30000089"
      }
    },
    {
      "type": "Feature",
      "geometry": {
        "type": "Point",
        "coordinates": [
          100.52571999999999,
          5.504220200000001
        ]
      },
      "properties": {
        "stop_id": 12002614,
        "stop_code": "MCK0903",
        "stop_name": "Taman Selesa",
        "route_id": "30000089"
      }
    },
    {
      "type": "Feature",
      "geometry": {
        "type": "Point",
        "coordinates": [
          100.5350702,
          5.514208
        ]
      },
      "properties": {
        "stop_id": 12002619,
        "stop_code": "MCK0904",
        "stop_name": "Taman Lagenda",
        "route_id": "30000089"
      }
    },
    {
      "type": "Feature",
      "geometry": {
        "type": "Point",
        "coordinates": [
          100.5401127,
          5.5150543
        ]
      },
      "properties": {
        "stop_id": 12002620,
        "stop_code": "MCK0905",
        "stop_name": "TAMAN SERAI WANGI",
        "route_id": "30000089"
      }
    },
    {
      "type": "Feature",
      "geometry": {
        "type": "Point",
        "coordinates": [
          100.5446671,
          5.5153426
        ]
      },
      "properties": {
        "stop_id": 12002622,
        "stop_code": "MCK0907",
        "stop_name": "PUSAT PERNIAGAAN PADANG SERAI",
        "route_id": "30000089"
      }
    },
    {
      "type": "Feature",
      "geometry": {
        "type": "Point",
        "coordinates": [
          100.5521371,
          5.5137700999999995
        ]
      },
      "properties": {
        "stop_id": 12002621,
        "stop_code": "MCK0906",
        "stop_name": "PEKAN PADANG SERAI",
        "route_id": "30000089"
      }
    },
    {
      "type": "Feature",
      "geometry": {
        "type": "Point",
        "coordinates": [
          100.5536579,
          5.510301999999999
        ]
      },
      "properties": {
        "stop_id": 12002623,
        "stop_code": "MCK0908",
        "stop_name": "Klinik Kesihatan Padang Serai",
        "route_id": "30000089"
      }
    }
  ]
}