{
  "type": "FeatureCollection",
  "features": [
    {
      "type": "Feature",
      "geometry": {
        "type": "Point",
        "coordinates": [
          100.3420128,
          5.414445300000001
        ]
      },
      "properties": {
        "stop_id": 12002973,
        "stop_code": "IKI2080",
        "stop_name": "Jetty",
        "route_id": "30000051"
      }
    },
    {
      "type": "Feature",
      "geometry": {
        "type": "Point",
        "coordinates": [
          100.34156999999999,
          5.4168400000000005
        ]
      },
      "properties": {
        "stop_id": 12001944,
        "stop_code": "IIZ1944",
        "stop_name": "Bank OCBC",
        "route_id": "30000051"
      }
    },
    {
      "type": "Feature",
      "geometry": {
        "type": "Point",
        "coordinates": [
          100.34356,
          5.418646
        ]
      },
      "properties": {
        "stop_id": 12001943,
        "stop_code": "IIZ1943",
        "stop_name": "Balai Polis",
        "route_id": "30000051"
      }
    },
    {
      "type": "Feature",
      "geometry": {
        "type": "Point",
        "coordinates": [
          100.34087,
          5.42049
        ]
      },
      "properties": {
        "stop_id": 12001935,
        "stop_code": "IIU1935",
        "stop_name": "Bank Negara Malaysia",
        "route_id": "30000051"
      }
    },
    {
      "type": "Feature",
      "geometry": {
        "type": "Point",
        "coordinates": [
          100.3391,
          5.42045
        ]
      },
      "properties": {
        "stop_id": 12001926,
        "stop_code": "IIS1926",
        "stop_name": "Muzium Pulau Pinang",
        "route_id": "30000051"
      }
    },
    {
      "type": "Feature",
      "geometry": {
        "type": "Point",
        "coordinates": [
          100.33700999999999,
          5.42126
        ]
      },
      "properties": {
        "stop_id": 12001928,
        "stop_code": "IIS1928",
        "stop_name": "SMK ST. Xavier",
        "route_id": "30000051"
      }
    },
    {
      "type": "Feature",
      "geometry": {
        "type": "Point",
        "coordinates": [
          100.3337,
          5.42143
        ]
      },
      "properties": {
        "stop_id": 12001066,
        "stop_code": "IEV1066",
        "stop_name": "Hotel Cititel",
        "route_id": "30000051"
      }
    },
    {
      "type": "Feature",
      "geometry": {
        "type": "Point",
        "coordinates": [
          100.33199,
          5.41925
        ]
      },
      "properties": {
        "stop_id": 12001064,
        "stop_code": "IEV1064",
        "stop_name": "Penang Road",
        "route_id": "30000051"
      }
    },
    {
      "type": "Feature",
      "geometry": {
        "type": "Point",
        "coordinates": [
          100.33089240000001,
          5.4150168
        ]
      },
      "properties": {
        "stop_id": 12002213,
        "stop_code": "IFW1399",
        "stop_name": "Komtar II",
        "route_id": "30000051"
      }
    },
    {
      "type": "Feature",
      "geometry": {
        "type": "Point",
        "coordinates": [
          100.32954000000001,
          5.41841
        ]
      },
      "properties": {
        "stop_id": 12001832,
        "stop_code": "IIC1832",
        "stop_name": "Wisma MCA",
        "route_id": "30000051"
      }
    },
    {
      "type": "Feature",
      "geometry": {
        "type": "Point",
        "coordinates": [
          100.331245,
          5.418131
        ]
      },
      "properties": {
        "stop_id": 12001061,
        "stop_code": "IEV1061",
        "stop_name": "Pasar Chowrasta",
        "route_id": "30000051"
      }
    },
    {
      "type": "Feature",
      "geometry": {
        "type": "Point",
        "coordinates": [
          100.33229,
          5.414579
        ]
      },
      "properties": {
        "stop_id": 12000474,
        "stop_code": "IBH0474",
        "stop_name": "Komtar Timur",
        "route_id": "30000051"
      }
    },
    {
      "type": "Feature",
      "geometry": {
        "type": "Point",
        "coordinates": [
          100.335,
          5.415494
        ]
      },
      "properties": {
        "stop_id": 12001915,
        "stop_code": "IIO1915",
        "stop_name": "Hotel Armenian",
        "route_id": "30000051"
      }
    },
    {
      "type": "Feature",
      "geometry": {
        "type": "Point",
        "coordinates": [
          100.33646999999999,
          5.41614
        ]
      },
      "properties": {
        "stop_id": 12000611,
        "stop_code": "ICF0611",
        "stop_name": "Kampung Kolam",
        "route_id": "30000051"
      }
    },
    {
      "type": "Feature",
      "geometry": {
        "type": "Point",
        "coordinates": [
          100.339455,
          5.419436
        ]
      },
      "properties": {
        "stop_id": 12000859,
        "stop_code": "IDR0859",
        "stop_name": "Gereja St. George",
        "route_id": "30000051"
      }
    },
    {
      "type": "Feature",
      "geometry": {
        "type": "Point",
        "coordinates": [
          100.34076,
          5.420669999999999
        ]
      },
      "properties": {
        "stop_id": 12001936,
        "stop_code": "IIU1936",
        "stop_name": "Dewan Sri Pinang",
        "route_id": "30000051"
      }
    },
    {
      "type": "Feature",
      "geometry": {
        "type": "Point",
        "coordinates": [
          100.34257,
          5.41994
        ]
      },
      "properties": {
        "stop_id": 12001934,
        "stop_code": "IIU1934",
        "stop_name": "Padang Kota Lama",
        "route_id": "30000051"
      }
    },
    {
      "type": "Feature",
      "geometry": {
        "type": "Point",
        "coordinates": [
          100.34508129999999,
          5.4185041
        ]
      },
      "properties": {
        "stop_id": 12002972,
        "stop_code": "IIR1927",
        "stop_name": "Swettenham Pier Cruise Terminal",
        "route_id": "30000051"
      }
    },
    {
      "type": "Feature",
      "geometry": {
        "type": "Point",
        "coordinates": [
          100.34413,
          5.41664
        ]
      },
      "properties": {
        "stop_id": 12002057,
        "stop_code": "IKI2057",
        "stop_name": "Church Street Pier",
        "route_id": "30000051"
      }
    }
  ]
}