{
  "type": "FeatureCollection",
  "features": [
    {
      "type": "Feature",
      "geometry": {
        "type": "Point",
        "coordinates": [
          100.54287,
          5.28661
        ]
      },
      "properties": {
        "stop_id": 12000041,
        "stop_code": "M0J0041",
        "stop_name": "Hub Jalan Air Puteh",
        "route_id": "30000040"
      }
    },
    {
      "type": "Feature",
      "geometry": {
        "type": "Point",
        "coordinates": [
          100.53416,
          5.297969999999999
        ]
      },
      "properties": {
        "stop_id": 12000044,
        "stop_code": "M0J0044",
        "stop_name": "Pekan Junjung",
        "route_id": "30000040"
      }
    },
    {
      "type": "Feature",
      "geometry": {
        "type": "Point",
        "coordinates": [
          100.53179,
          5.29765
        ]
      },
      "properties": {
        "stop_id": 12001699,
        "stop_code": "MHM1699",
        "stop_name": "Pejabat Koperasi Tasek Junjung",
        "route_id": "30000040"
      }
    },
    {
      "type": "Feature",
      "geometry": {
        "type": "Point",
        "coordinates": [
          100.527839,
          5.296951
        ]
      },
      "properties": {
        "stop_id": 12002577,
        "stop_code": "ICT0245",
        "stop_name": "Masjid Jamek Tasik Junjung",
        "route_id": "30000040"
      }
    },
    {
      "type": "Feature",
      "geometry": {
        "type": "Point",
        "coordinates": [
          100.524289,
          5.2928
        ]
      },
      "properties": {
        "stop_id": 12002578,
        "stop_code": "ICT0222",
        "stop_name": "Kampung Sepulau",
        "route_id": "30000040"
      }
    },
    {
      "type": "Feature",
      "geometry": {
        "type": "Point",
        "coordinates": [
          100.52179,
          5.28559
        ]
      },
      "properties": {
        "stop_id": 12001698,
        "stop_code": "MHM1698",
        "stop_name": "SK Seri Tasek",
        "route_id": "30000040"
      }
    },
    {
      "type": "Feature",
      "geometry": {
        "type": "Point",
        "coordinates": [
          100.52026,
          5.28443
        ]
      },
      "properties": {
        "stop_id": 12001680,
        "stop_code": "MHK1680",
        "stop_name": "Muda Paper I",
        "route_id": "30000040"
      }
    },
    {
      "type": "Feature",
      "geometry": {
        "type": "Point",
        "coordinates": [
          100.51924,
          5.28447
        ]
      },
      "properties": {
        "stop_id": 12001681,
        "stop_code": "MHK1681",
        "stop_name": "Muda Paper II",
        "route_id": "30000040"
      }
    },
    {
      "type": "Feature",
      "geometry": {
        "type": "Point",
        "coordinates": [
          100.51734,
          5.28453
        ]
      },
      "properties": {
        "stop_id": 12001682,
        "stop_code": "MHK1682",
        "stop_name": "Muda Paper III",
        "route_id": "30000040"
      }
    },
    {
      "type": "Feature",
      "geometry": {
        "type": "Point",
        "coordinates": [
          100.51335,
          5.28456
        ]
      },
      "properties": {
        "stop_id": 12001683,
        "stop_code": "MHK1683",
        "stop_name": "Gerai Tasek",
        "route_id": "30000040"
      }
    },
    {
      "type": "Feature",
      "geometry": {
        "type": "Point",
        "coordinates": [
          100.51138,
          5.28471
        ]
      },
      "properties": {
        "stop_id": 12001688,
        "stop_code": "MHK1688",
        "stop_name": "Kampung Padang",
        "route_id": "30000040"
      }
    },
    {
      "type": "Feature",
      "geometry": {
        "type": "Point",
        "coordinates": [
          100.50929000000001,
          5.28477
        ]
      },
      "properties": {
        "stop_id": 12001689,
        "stop_code": "MHK1689",
        "stop_name": "Masjid Padang Lalang",
        "route_id": "30000040"
      }
    },
    {
      "type": "Feature",
      "geometry": {
        "type": "Point",
        "coordinates": [
          100.5063,
          5.2848
        ]
      },
      "properties": {
        "stop_id": 12001690,
        "stop_code": "MHK1690",
        "stop_name": "Taman Tasek Indah",
        "route_id": "30000040"
      }
    },
    {
      "type": "Feature",
      "geometry": {
        "type": "Point",
        "coordinates": [
          100.5027,
          5.28494
        ]
      },
      "properties": {
        "stop_id": 12001692,
        "stop_code": "MHK1692",
        "stop_name": "Taman Puteri Gunung",
        "route_id": "30000040"
      }
    },
    {
      "type": "Feature",
      "geometry": {
        "type": "Point",
        "coordinates": [
          100.49889,
          5.28498
        ]
      },
      "properties": {
        "stop_id": 12001693,
        "stop_code": "MHK1693",
        "stop_name": "Taman Tasek Harmoni",
        "route_id": "30000040"
      }
    },
    {
      "type": "Feature",
      "geometry": {
        "type": "Point",
        "coordinates": [
          100.49468,
          5.28489
        ]
      },
      "properties": {
        "stop_id": 12001691,
        "stop_code": "MHK1691",
        "stop_name": "Taman Tasek",
        "route_id": "30000040"
      }
    },
    {
      "type": "Feature",
      "geometry": {
        "type": "Point",
        "coordinates": [
          100.49255,
          5.283273
        ]
      },
      "properties": {
        "stop_id": 12002579,
        "stop_code": "ICT0225",
        "stop_name": "Bandar Tasek Mutiara",
        "route_id": "30000040"
      }
    },
    {
      "type": "Feature",
      "geometry": {
        "type": "Point",
        "coordinates": [
          100.49188000000001,
          5.2777
        ]
      },
      "properties": {
        "stop_id": 12001694,
        "stop_code": "MHL1694",
        "stop_name": "(M2) Pearl City Mall",
        "route_id": "30000040"
      }
    },
    {
      "type": "Feature",
      "geometry": {
        "type": "Point",
        "coordinates": [
          100.48369,
          5.2783
        ]
      },
      "properties": {
        "stop_id": 12001696,
        "stop_code": "MHL1696",
        "stop_name": "Bandar Tasek Mutiara",
        "route_id": "30000040"
      }
    },
    {
      "type": "Feature",
      "geometry": {
        "type": "Point",
        "coordinates": [
          100.47665,
          5.28365
        ]
      },
      "properties": {
        "stop_id": 12001265,
        "stop_code": "MFK1265",
        "stop_name": "Balai Polis Simpang Empat",
        "route_id": "30000040"
      }
    },
    {
      "type": "Feature",
      "geometry": {
        "type": "Point",
        "coordinates": [
          100.47731,
          5.28653
        ]
      },
      "properties": {
        "stop_id": 12001266,
        "stop_code": "MFK1266",
        "stop_name": "Kg. Baru Simpang Empat",
        "route_id": "30000040"
      }
    },
    {
      "type": "Feature",
      "geometry": {
        "type": "Point",
        "coordinates": [
          100.47867,
          5.29097
        ]
      },
      "properties": {
        "stop_id": 12001268,
        "stop_code": "MFK1268",
        "stop_name": "Pusat Perniagaan Simpang Empat",
        "route_id": "30000040"
      }
    },
    {
      "type": "Feature",
      "geometry": {
        "type": "Point",
        "coordinates": [
          100.47903000000001,
          5.29524
        ]
      },
      "properties": {
        "stop_id": 12001270,
        "stop_code": "MFK1270",
        "stop_name": "Taman Permatang Tinggi Indah",
        "route_id": "30000040"
      }
    },
    {
      "type": "Feature",
      "geometry": {
        "type": "Point",
        "coordinates": [
          100.47861,
          5.29726
        ]
      },
      "properties": {
        "stop_id": 12001271,
        "stop_code": "MFK1271",
        "stop_name": "Taman Perwira",
        "route_id": "30000040"
      }
    },
    {
      "type": "Feature",
      "geometry": {
        "type": "Point",
        "coordinates": [
          100.47754,
          5.29968
        ]
      },
      "properties": {
        "stop_id": 12001272,
        "stop_code": "MFK1272",
        "stop_name": "SRJK Permatang Tinggi",
        "route_id": "30000040"
      }
    },
    {
      "type": "Feature",
      "geometry": {
        "type": "Point",
        "coordinates": [
          100.47986,
          5.309480000000001
        ]
      },
      "properties": {
        "stop_id": 12001357,
        "stop_code": "MFX1357",
        "stop_name": "Taman Impian Ria",
        "route_id": "30000040"
      }
    },
    {
      "type": "Feature",
      "geometry": {
        "type": "Point",
        "coordinates": [
          100.47903000000001,
          5.3121599999999995
        ]
      },
      "properties": {
        "stop_id": 12001359,
        "stop_code": "MFX1359",
        "stop_name": "Taman Industri Impian",
        "route_id": "30000040"
      }
    },
    {
      "type": "Feature",
      "geometry": {
        "type": "Point",
        "coordinates": [
          100.4778,
          5.31597
        ]
      },
      "properties": {
        "stop_id": 12001360,
        "stop_code": "MFX1360",
        "stop_name": "TESCO Alma",
        "route_id": "30000040"
      }
    },
    {
      "type": "Feature",
      "geometry": {
        "type": "Point",
        "coordinates": [
          100.47679000000001,
          5.3192
        ]
      },
      "properties": {
        "stop_id": 12001361,
        "stop_code": "MFX1361",
        "stop_name": "AEON Pintu Utama",
        "route_id": "30000040"
      }
    },
    {
      "type": "Feature",
      "geometry": {
        "type": "Point",
        "coordinates": [
          100.47659,
          5.32134
        ]
      },
      "properties": {
        "stop_id": 12001363,
        "stop_code": "MFX1363",
        "stop_name": "Taman Sri Kijang",
        "route_id": "30000040"
      }
    },
    {
      "type": "Feature",
      "geometry": {
        "type": "Point",
        "coordinates": [
          100.47845799999999,
          5.322216
        ]
      },
      "properties": {
        "stop_id": 12002580,
        "stop_code": "ICT0227",
        "stop_name": "Masjid Jamek Alma Jaya",
        "route_id": "30000040"
      }
    },
    {
      "type": "Feature",
      "geometry": {
        "type": "Point",
        "coordinates": [
          100.480637,
          5.320972
        ]
      },
      "properties": {
        "stop_id": 12002581,
        "stop_code": "ICT0228",
        "stop_name": "Taman Seri Impian",
        "route_id": "30000040"
      }
    },
    {
      "type": "Feature",
      "geometry": {
        "type": "Point",
        "coordinates": [
          100.48369699999999,
          5.321427
        ]
      },
      "properties": {
        "stop_id": 12002582,
        "stop_code": "ICT0229",
        "stop_name": "Jessel Ball Sport Center",
        "route_id": "30000040"
      }
    },
    {
      "type": "Feature",
      "geometry": {
        "type": "Point",
        "coordinates": [
          100.48589799999999,
          5.325512000000001
        ]
      },
      "properties": {
        "stop_id": 12002583,
        "stop_code": "ICT0230",
        "stop_name": "Kilang Ayamas",
        "route_id": "30000040"
      }
    },
    {
      "type": "Feature",
      "geometry": {
        "type": "Point",
        "coordinates": [
          100.48575,
          5.32784
        ]
      },
      "properties": {
        "stop_id": 12001370,
        "stop_code": "MGC1370",
        "stop_name": "Taman Nirwana",
        "route_id": "30000040"
      }
    },
    {
      "type": "Feature",
      "geometry": {
        "type": "Point",
        "coordinates": [
          100.48397,
          5.3284199999999995
        ]
      },
      "properties": {
        "stop_id": 12001371,
        "stop_code": "MGC1371",
        "stop_name": "Taman Alma Jaya",
        "route_id": "30000040"
      }
    },
    {
      "type": "Feature",
      "geometry": {
        "type": "Point",
        "coordinates": [
          100.481967,
          5.329199
        ]
      },
      "properties": {
        "stop_id": 12002584,
        "stop_code": "ICT0232",
        "stop_name": "Taman Selesa",
        "route_id": "30000040"
      }
    },
    {
      "type": "Feature",
      "geometry": {
        "type": "Point",
        "coordinates": [
          100.47796,
          5.32975
        ]
      },
      "properties": {
        "stop_id": 12000045,
        "stop_code": "M0K0045",
        "stop_name": "SJKC Sin Ya",
        "route_id": "30000040"
      }
    },
    {
      "type": "Feature",
      "geometry": {
        "type": "Point",
        "coordinates": [
          100.47378,
          5.33871
        ]
      },
      "properties": {
        "stop_id": 12000403,
        "stop_code": "MBD0403",
        "stop_name": "Jalan Damai",
        "route_id": "30000040"
      }
    },
    {
      "type": "Feature",
      "geometry": {
        "type": "Point",
        "coordinates": [
          100.47388000000001,
          5.3416
        ]
      },
      "properties": {
        "stop_id": 12000405,
        "stop_code": "MBD0405",
        "stop_name": "SMK Jalan Damai",
        "route_id": "30000040"
      }
    },
    {
      "type": "Feature",
      "geometry": {
        "type": "Point",
        "coordinates": [
          100.47166,
          5.34585
        ]
      },
      "properties": {
        "stop_id": 12000598,
        "stop_code": "MCC0598",
        "stop_name": "Taman Alma Perpaduan",
        "route_id": "30000040"
      }
    },
    {
      "type": "Feature",
      "geometry": {
        "type": "Point",
        "coordinates": [
          100.47245,
          5.3471
        ]
      },
      "properties": {
        "stop_id": 12000599,
        "stop_code": "MCC0599",
        "stop_name": "Pasar Awam Kampung Baru",
        "route_id": "30000040"
      }
    },
    {
      "type": "Feature",
      "geometry": {
        "type": "Point",
        "coordinates": [
          100.47122,
          5.34943
        ]
      },
      "properties": {
        "stop_id": 12000248,
        "stop_code": "MAH0248",
        "stop_name": "SK Kampung Baru I",
        "route_id": "30000040"
      }
    },
    {
      "type": "Feature",
      "geometry": {
        "type": "Point",
        "coordinates": [
          100.47061,
          5.34995
        ]
      },
      "properties": {
        "stop_id": 12000249,
        "stop_code": "MAH0249",
        "stop_name": "SK Kampung Baru II",
        "route_id": "30000040"
      }
    },
    {
      "type": "Feature",
      "geometry": {
        "type": "Point",
        "coordinates": [
          100.4714,
          5.353794000000001
        ]
      },
      "properties": {
        "stop_id": 12002540,
        "stop_code": "ICT0233",
        "stop_name": "Sentosa Residence",
        "route_id": "30000040"
      }
    },
    {
      "type": "Feature",
      "geometry": {
        "type": "Point",
        "coordinates": [
          100.46761,
          5.356240000000001
        ]
      },
      "properties": {
        "stop_id": 12000804,
        "stop_code": "MDA0804",
        "stop_name": "SJK(C) Kim Sen",
        "route_id": "30000040"
      }
    },
    {
      "type": "Feature",
      "geometry": {
        "type": "Point",
        "coordinates": [
          100.465325,
          5.359338
        ]
      },
      "properties": {
        "stop_id": 12002541,
        "stop_code": "ICT0234",
        "stop_name": "SK Convent Bukit Mertajam",
        "route_id": "30000040"
      }
    },
    {
      "type": "Feature",
      "geometry": {
        "type": "Point",
        "coordinates": [
          100.462845,
          5.363758
        ]
      },
      "properties": {
        "stop_id": 12002542,
        "stop_code": "ICT0236",
        "stop_name": "SJK(C) Jit Sin",
        "route_id": "30000040"
      }
    },
    {
      "type": "Feature",
      "geometry": {
        "type": "Point",
        "coordinates": [
          100.462624,
          5.3657975
        ]
      },
      "properties": {
        "stop_id": 12002201,
        "stop_code": "MOO0056",
        "stop_name": "(M1) The Summit",
        "route_id": "30000040"
      }
    },
    {
      "type": "Feature",
      "geometry": {
        "type": "Point",
        "coordinates": [
          100.4632,
          5.36339
        ]
      },
      "properties": {
        "stop_id": 12000056,
        "stop_code": "M0P0056",
        "stop_name": "SM Persendirian Jit Sin",
        "route_id": "30000040"
      }
    },
    {
      "type": "Feature",
      "geometry": {
        "type": "Point",
        "coordinates": [
          100.465059,
          5.362278
        ]
      },
      "properties": {
        "stop_id": 12002533,
        "stop_code": "ICT0418",
        "stop_name": "Taman Usahaniaga",
        "route_id": "30000040"
      }
    },
    {
      "type": "Feature",
      "geometry": {
        "type": "Point",
        "coordinates": [
          100.46595,
          5.35942
        ]
      },
      "properties": {
        "stop_id": 12001893,
        "stop_code": "MIJ1893",
        "stop_name": "JPA Bukit Mertajam",
        "route_id": "30000040"
      }
    },
    {
      "type": "Feature",
      "geometry": {
        "type": "Point",
        "coordinates": [
          100.46913,
          5.3552
        ]
      },
      "properties": {
        "stop_id": 12000800,
        "stop_code": "MDA0800",
        "stop_name": "Taman Kuari",
        "route_id": "30000040"
      }
    },
    {
      "type": "Feature",
      "geometry": {
        "type": "Point",
        "coordinates": [
          100.47074,
          5.35426
        ]
      },
      "properties": {
        "stop_id": 12000799,
        "stop_code": "MDA0799",
        "stop_name": "Taman Jaya",
        "route_id": "30000040"
      }
    },
    {
      "type": "Feature",
      "geometry": {
        "type": "Point",
        "coordinates": [
          100.47288,
          5.35331
        ]
      },
      "properties": {
        "stop_id": 12000798,
        "stop_code": "MDA0798",
        "stop_name": "Taman Sentosa",
        "route_id": "30000040"
      }
    },
    {
      "type": "Feature",
      "geometry": {
        "type": "Point",
        "coordinates": [
          100.47315,
          5.34975
        ]
      },
      "properties": {
        "stop_id": 12000590,
        "stop_code": "MCC0590",
        "stop_name": "Taman Tampoi Indah",
        "route_id": "30000040"
      }
    },
    {
      "type": "Feature",
      "geometry": {
        "type": "Point",
        "coordinates": [
          100.47193100000001,
          5.346003
        ]
      },
      "properties": {
        "stop_id": 12002586,
        "stop_code": "ICT0419",
        "stop_name": "B Garden",
        "route_id": "30000040"
      }
    },
    {
      "type": "Feature",
      "geometry": {
        "type": "Point",
        "coordinates": [
          100.471626,
          5.343323000000001
        ]
      },
      "properties": {
        "stop_id": 12002587,
        "stop_code": "ICT0420",
        "stop_name": "AADK Bukit Mertajam",
        "route_id": "30000040"
      }
    },
    {
      "type": "Feature",
      "geometry": {
        "type": "Point",
        "coordinates": [
          100.47417,
          5.34162
        ]
      },
      "properties": {
        "stop_id": 12000404,
        "stop_code": "MBD0404",
        "stop_name": "SM Sains Tun Syed Sheh Shahabudin",
        "route_id": "30000040"
      }
    },
    {
      "type": "Feature",
      "geometry": {
        "type": "Point",
        "coordinates": [
          100.47384100000001,
          5.338741000000001
        ]
      },
      "properties": {
        "stop_id": 12002601,
        "stop_code": "ICT0421",
        "stop_name": "Taman Alma",
        "route_id": "30000040"
      }
    },
    {
      "type": "Feature",
      "geometry": {
        "type": "Point",
        "coordinates": [
          100.47456,
          5.3320099999999995
        ]
      },
      "properties": {
        "stop_id": 12000047,
        "stop_code": "M0K0047",
        "stop_name": "SK Alma",
        "route_id": "30000040"
      }
    },
    {
      "type": "Feature",
      "geometry": {
        "type": "Point",
        "coordinates": [
          100.47829,
          5.330019999999999
        ]
      },
      "properties": {
        "stop_id": 12000046,
        "stop_code": "M0K0046",
        "stop_name": "SJKC Sin Ya",
        "route_id": "30000040"
      }
    },
    {
      "type": "Feature",
      "geometry": {
        "type": "Point",
        "coordinates": [
          100.4820585,
          5.3292507
        ]
      },
      "properties": {
        "stop_id": 12002588,
        "stop_code": "ICT232",
        "stop_name": "Taman Selesa",
        "route_id": "30000040"
      }
    },
    {
      "type": "Feature",
      "geometry": {
        "type": "Point",
        "coordinates": [
          100.484109,
          5.328474
        ]
      },
      "properties": {
        "stop_id": 12002589,
        "stop_code": "ICT0423",
        "stop_name": "Taman Sri Alma",
        "route_id": "30000040"
      }
    },
    {
      "type": "Feature",
      "geometry": {
        "type": "Point",
        "coordinates": [
          100.48588000000001,
          5.327946
        ]
      },
      "properties": {
        "stop_id": 12002590,
        "stop_code": "ICT0424",
        "stop_name": "Pasar Awam Taman Selamat",
        "route_id": "30000040"
      }
    },
    {
      "type": "Feature",
      "geometry": {
        "type": "Point",
        "coordinates": [
          100.4859902,
          5.325418900000001
        ]
      },
      "properties": {
        "stop_id": 12002591,
        "stop_code": "ICT0231",
        "stop_name": "Kilang Ayamas",
        "route_id": "30000040"
      }
    },
    {
      "type": "Feature",
      "geometry": {
        "type": "Point",
        "coordinates": [
          100.483751,
          5.321332
        ]
      },
      "properties": {
        "stop_id": 12002592,
        "stop_code": "ICT0426",
        "stop_name": "Jessel Ball Sport Center",
        "route_id": "30000040"
      }
    },
    {
      "type": "Feature",
      "geometry": {
        "type": "Point",
        "coordinates": [
          100.47986999999999,
          5.32132
        ]
      },
      "properties": {
        "stop_id": 12001381,
        "stop_code": "MGG1381",
        "stop_name": "AEON Gate 5",
        "route_id": "30000040"
      }
    },
    {
      "type": "Feature",
      "geometry": {
        "type": "Point",
        "coordinates": [
          100.47837700000001,
          5.322132
        ]
      },
      "properties": {
        "stop_id": 12002593,
        "stop_code": "ICT0427",
        "stop_name": "Masjid Jamek Alma Jaya",
        "route_id": "30000040"
      }
    },
    {
      "type": "Feature",
      "geometry": {
        "type": "Point",
        "coordinates": [
          100.47699,
          5.31962
        ]
      },
      "properties": {
        "stop_id": 12001362,
        "stop_code": "MFX1362",
        "stop_name": "AEON Pintu Utama",
        "route_id": "30000040"
      }
    },
    {
      "type": "Feature",
      "geometry": {
        "type": "Point",
        "coordinates": [
          100.47819799999999,
          5.315483
        ]
      },
      "properties": {
        "stop_id": 12002594,
        "stop_code": "ICT0428",
        "stop_name": "Tesco Alma",
        "route_id": "30000040"
      }
    },
    {
      "type": "Feature",
      "geometry": {
        "type": "Point",
        "coordinates": [
          100.47958,
          5.31124
        ]
      },
      "properties": {
        "stop_id": 12001358,
        "stop_code": "MFX1358",
        "stop_name": "Taman Seri Impian",
        "route_id": "30000040"
      }
    },
    {
      "type": "Feature",
      "geometry": {
        "type": "Point",
        "coordinates": [
          100.47737,
          5.30021
        ]
      },
      "properties": {
        "stop_id": 12001273,
        "stop_code": "MFK1273",
        "stop_name": "SRJK Permatang Tinggi",
        "route_id": "30000040"
      }
    },
    {
      "type": "Feature",
      "geometry": {
        "type": "Point",
        "coordinates": [
          100.47935,
          5.294630000000001
        ]
      },
      "properties": {
        "stop_id": 12001269,
        "stop_code": "MFK1269",
        "stop_name": "Taman Permatang Tinggi Indah",
        "route_id": "30000040"
      }
    },
    {
      "type": "Feature",
      "geometry": {
        "type": "Point",
        "coordinates": [
          100.47819,
          5.2889800000000005
        ]
      },
      "properties": {
        "stop_id": 12001267,
        "stop_code": "MFK1267",
        "stop_name": "Pusat Perniagan Simpang Empat",
        "route_id": "30000040"
      }
    },
    {
      "type": "Feature",
      "geometry": {
        "type": "Point",
        "coordinates": [
          100.476674,
          5.282946
        ]
      },
      "properties": {
        "stop_id": 12002329,
        "stop_code": "ICT0066",
        "stop_name": "Masjid Simpang Empat",
        "route_id": "30000040"
      }
    },
    {
      "type": "Feature",
      "geometry": {
        "type": "Point",
        "coordinates": [
          100.48439,
          5.27834
        ]
      },
      "properties": {
        "stop_id": 12001697,
        "stop_code": "MHL1697",
        "stop_name": "Pusat Perniagaan Tasek Mutiara",
        "route_id": "30000040"
      }
    },
    {
      "type": "Feature",
      "geometry": {
        "type": "Point",
        "coordinates": [
          100.49068,
          5.27789
        ]
      },
      "properties": {
        "stop_id": 12001695,
        "stop_code": "MHL1695",
        "stop_name": "(M3) Pearl City Mall",
        "route_id": "30000040"
      }
    },
    {
      "type": "Feature",
      "geometry": {
        "type": "Point",
        "coordinates": [
          100.492424,
          5.28009
        ]
      },
      "properties": {
        "stop_id": 12002595,
        "stop_code": "ICT0429",
        "stop_name": "Taman Mutiara Simpang Empat",
        "route_id": "30000040"
      }
    },
    {
      "type": "Feature",
      "geometry": {
        "type": "Point",
        "coordinates": [
          100.49319,
          5.285
        ]
      },
      "properties": {
        "stop_id": 12001685,
        "stop_code": "MHK1685",
        "stop_name": "Petronas Bandar Tasek Mutiara",
        "route_id": "30000040"
      }
    },
    {
      "type": "Feature",
      "geometry": {
        "type": "Point",
        "coordinates": [
          100.49750999999999,
          5.28515
        ]
      },
      "properties": {
        "stop_id": 12001687,
        "stop_code": "MHK1687",
        "stop_name": "Taman Tasek",
        "route_id": "30000040"
      }
    },
    {
      "type": "Feature",
      "geometry": {
        "type": "Point",
        "coordinates": [
          100.50108,
          5.285069999999999
        ]
      },
      "properties": {
        "stop_id": 12001686,
        "stop_code": "MHK1686",
        "stop_name": "Taman Puteri Gunung",
        "route_id": "30000040"
      }
    },
    {
      "type": "Feature",
      "geometry": {
        "type": "Point",
        "coordinates": [
          100.50668,
          5.284905
        ]
      },
      "properties": {
        "stop_id": 12002596,
        "stop_code": "ICT0220",
        "stop_name": "Taman Tasek Indah",
        "route_id": "30000040"
      }
    },
    {
      "type": "Feature",
      "geometry": {
        "type": "Point",
        "coordinates": [
          100.51559,
          5.2847
        ]
      },
      "properties": {
        "stop_id": 12001684,
        "stop_code": "MHK1684",
        "stop_name": "Kampung Hj. Abdullah",
        "route_id": "30000040"
      }
    },
    {
      "type": "Feature",
      "geometry": {
        "type": "Point",
        "coordinates": [
          100.519954,
          5.2845379999999995
        ]
      },
      "properties": {
        "stop_id": 12002597,
        "stop_code": "ICT0201",
        "stop_name": "Muda Paper Mill",
        "route_id": "30000040"
      }
    },
    {
      "type": "Feature",
      "geometry": {
        "type": "Point",
        "coordinates": [
          100.52891,
          5.297051000000001
        ]
      },
      "properties": {
        "stop_id": 12002599,
        "stop_code": "ICT0223",
        "stop_name": "Kampung Tasek Junjung",
        "route_id": "30000040"
      }
    },
    {
      "type": "Feature",
      "geometry": {
        "type": "Point",
        "coordinates": [
          100.534257,
          5.298019999999999
        ]
      },
      "properties": {
        "stop_id": 12002600,
        "stop_code": "ICT0224",
        "stop_name": "Pekan Junjung",
        "route_id": "30000040"
      }
    },
    {
      "type": "Feature",
      "geometry": {
        "type": "Point",
        "coordinates": [
          100.53738,
          5.289569999999999
        ]
      },
      "properties": {
        "stop_id": 12000042,
        "stop_code": "M0J0042",
        "stop_name": "SK. Permatang Tiong",
        "route_id": "30000040"
      }
    }
  ]
}