{
  "type": "FeatureCollection",
  "features": [
    {
      "type": "Feature",
      "geometry": {
        "type": "Point",
        "coordinates": [
          100.42664,
          5.33303
        ]
      },
      "properties": {
        "stop_id": 12001290,
        "stop_code": "MFO1290",
        "stop_name": "Hub Taman Juru Setia",
        "route_id": "30000065"
      }
    },
    {
      "type": "Feature",
      "geometry": {
        "type": "Point",
        "coordinates": [
          100.42792,
          5.340143
        ]
      },
      "properties": {
        "stop_id": 12002130,
        "stop_code": "MET2120",
        "stop_name": "Nashmir Car Park",
        "route_id": "30000065"
      }
    },
    {
      "type": "Feature",
      "geometry": {
        "type": "Point",
        "coordinates": [
          100.42726,
          5.3420000000000005
        ]
      },
      "properties": {
        "stop_id": 12002131,
        "stop_code": "MET2121",
        "stop_name": "Medan Selera Seri Pelangi",
        "route_id": "30000065"
      }
    },
    {
      "type": "Feature",
      "geometry": {
        "type": "Point",
        "coordinates": [
          100.426087,
          5.343564
        ]
      },
      "properties": {
        "stop_id": 12002136,
        "stop_code": "MET2124",
        "stop_name": "Kilang Xylem",
        "route_id": "30000065"
      }
    },
    {
      "type": "Feature",
      "geometry": {
        "type": "Point",
        "coordinates": [
          100.425329,
          5.3453204
        ]
      },
      "properties": {
        "stop_id": 12002947,
        "stop_code": "ICT0501",
        "stop_name": "Pangsapuri Taman Pelangi",
        "route_id": "30000065"
      }
    },
    {
      "type": "Feature",
      "geometry": {
        "type": "Point",
        "coordinates": [
          100.413023,
          5.355735
        ]
      },
      "properties": {
        "stop_id": 12002504,
        "stop_code": "ICT0315",
        "stop_name": "Kilang FMS",
        "route_id": "30000065"
      }
    },
    {
      "type": "Feature",
      "geometry": {
        "type": "Point",
        "coordinates": [
          100.41064,
          5.36104
        ]
      },
      "properties": {
        "stop_id": 12002123,
        "stop_code": "MLB2113",
        "stop_name": "Kilang Punch",
        "route_id": "30000065"
      }
    },
    {
      "type": "Feature",
      "geometry": {
        "type": "Point",
        "coordinates": [
          100.410934,
          5.361658
        ]
      },
      "properties": {
        "stop_id": 12002505,
        "stop_code": "ICT0314",
        "stop_name": "Pusat Komersial Nagasari",
        "route_id": "30000065"
      }
    },
    {
      "type": "Feature",
      "geometry": {
        "type": "Point",
        "coordinates": [
          100.41156509999999,
          5.363021400000001
        ]
      },
      "properties": {
        "stop_id": 12002124,
        "stop_code": "MLB2114",
        "stop_name": "Klinik Bersatu",
        "route_id": "30000065"
      }
    },
    {
      "type": "Feature",
      "geometry": {
        "type": "Point",
        "coordinates": [
          100.41395,
          5.36497
        ]
      },
      "properties": {
        "stop_id": 12002125,
        "stop_code": "MLC2115",
        "stop_name": "Padang Permainan Taman Nagasari",
        "route_id": "30000065"
      }
    },
    {
      "type": "Feature",
      "geometry": {
        "type": "Point",
        "coordinates": [
          100.41381,
          5.36679
        ]
      },
      "properties": {
        "stop_id": 12002126,
        "stop_code": "MLC2116",
        "stop_name": "Lorong Nagasari23",
        "route_id": "30000065"
      }
    },
    {
      "type": "Feature",
      "geometry": {
        "type": "Point",
        "coordinates": [
          100.41329499999999,
          5.366281
        ]
      },
      "properties": {
        "stop_id": 12002506,
        "stop_code": "ICT0317",
        "stop_name": "Pangsapuri Nagasari Blok B",
        "route_id": "30000065"
      }
    },
    {
      "type": "Feature",
      "geometry": {
        "type": "Point",
        "coordinates": [
          100.41395,
          5.3649
        ]
      },
      "properties": {
        "stop_id": 12002127,
        "stop_code": "MLC2117",
        "stop_name": "Padang Permainan Taman Nagasari",
        "route_id": "30000065"
      }
    },
    {
      "type": "Feature",
      "geometry": {
        "type": "Point",
        "coordinates": [
          100.41163780000001,
          5.362995300000001
        ]
      },
      "properties": {
        "stop_id": 12002128,
        "stop_code": "MLB2118",
        "stop_name": "Klinik Bersatu",
        "route_id": "30000065"
      }
    },
    {
      "type": "Feature",
      "geometry": {
        "type": "Point",
        "coordinates": [
          100.41079,
          5.3612
        ]
      },
      "properties": {
        "stop_id": 12002129,
        "stop_code": "MLB2119",
        "stop_name": "Warung Bonda",
        "route_id": "30000065"
      }
    },
    {
      "type": "Feature",
      "geometry": {
        "type": "Point",
        "coordinates": [
          100.414671,
          5.355105
        ]
      },
      "properties": {
        "stop_id": 12002508,
        "stop_code": "ICT0316",
        "stop_name": "Petron Kawasan Perusahaan Perai",
        "route_id": "30000065"
      }
    },
    {
      "type": "Feature",
      "geometry": {
        "type": "Point",
        "coordinates": [
          100.415548,
          5.3513459999999995
        ]
      },
      "properties": {
        "stop_id": 12002507,
        "stop_code": "ICT0318",
        "stop_name": "Kilang Flextronix",
        "route_id": "30000065"
      }
    },
    {
      "type": "Feature",
      "geometry": {
        "type": "Point",
        "coordinates": [
          100.408519,
          5.350936
        ]
      },
      "properties": {
        "stop_id": 12002138,
        "stop_code": "MLA2126",
        "stop_name": "Hadapan SMPC",
        "route_id": "30000065"
      }
    },
    {
      "type": "Feature",
      "geometry": {
        "type": "Point",
        "coordinates": [
          100.401979,
          5.354435
        ]
      },
      "properties": {
        "stop_id": 12002122,
        "stop_code": "MLA2112",
        "stop_name": "Kilang LB Aluminium",
        "route_id": "30000065"
      }
    },
    {
      "type": "Feature",
      "geometry": {
        "type": "Point",
        "coordinates": [
          100.4011559,
          5.35679
        ]
      },
      "properties": {
        "stop_id": 12002602,
        "stop_code": "ICT0900",
        "stop_name": "Kastam Perai",
        "route_id": "30000065"
      }
    },
    {
      "type": "Feature",
      "geometry": {
        "type": "Point",
        "coordinates": [
          100.39794,
          5.37879
        ]
      },
      "properties": {
        "stop_id": 12001067,
        "stop_code": "MEW1067",
        "stop_name": "(M2) Megamall - Pacific",
        "route_id": "30000065"
      }
    },
    {
      "type": "Feature",
      "geometry": {
        "type": "Point",
        "coordinates": [
          100.39541,
          5.380380000000001
        ]
      },
      "properties": {
        "stop_id": 12000179,
        "stop_code": "MAA0179",
        "stop_name": "Kuil Sri Muniswara",
        "route_id": "30000065"
      }
    },
    {
      "type": "Feature",
      "geometry": {
        "type": "Point",
        "coordinates": [
          100.39312,
          5.381530000000001
        ]
      },
      "properties": {
        "stop_id": 12000180,
        "stop_code": "MAA0180",
        "stop_name": "Padang Kilat",
        "route_id": "30000065"
      }
    },
    {
      "type": "Feature",
      "geometry": {
        "type": "Point",
        "coordinates": [
          100.3653495,
          5.3948602
        ]
      },
      "properties": {
        "stop_id": 12002322,
        "stop_code": "MEM0973",
        "stop_name": "(M1) Penang Sentral",
        "route_id": "30000065"
      }
    },
    {
      "type": "Feature",
      "geometry": {
        "type": "Point",
        "coordinates": [
          100.39278,
          5.38194
        ]
      },
      "properties": {
        "stop_id": 12000191,
        "stop_code": "MAA0191",
        "stop_name": "Kompleks Chai Leng Park",
        "route_id": "30000065"
      }
    },
    {
      "type": "Feature",
      "geometry": {
        "type": "Point",
        "coordinates": [
          100.405614,
          5.354658000000001
        ]
      },
      "properties": {
        "stop_id": 12002121,
        "stop_code": "MKZ2111",
        "stop_name": "Kilang Trane",
        "route_id": "30000065"
      }
    },
    {
      "type": "Feature",
      "geometry": {
        "type": "Point",
        "coordinates": [
          100.425211,
          5.3450239999999996
        ]
      },
      "properties": {
        "stop_id": 12002503,
        "stop_code": "ICT0408",
        "stop_name": "Pangsapuri Taman Pelangi",
        "route_id": "30000065"
      }
    },
    {
      "type": "Feature",
      "geometry": {
        "type": "Point",
        "coordinates": [
          100.42628,
          5.343304
        ]
      },
      "properties": {
        "stop_id": 12002511,
        "stop_code": "ICT0409",
        "stop_name": "Asrama Mattel",
        "route_id": "30000065"
      }
    },
    {
      "type": "Feature",
      "geometry": {
        "type": "Point",
        "coordinates": [
          100.42742,
          5.34185
        ]
      },
      "properties": {
        "stop_id": 12001048,
        "stop_code": "MET1048",
        "stop_name": "Medan Selera Taman Pelangi",
        "route_id": "30000065"
      }
    },
    {
      "type": "Feature",
      "geometry": {
        "type": "Point",
        "coordinates": [
          100.428081,
          5.339957
        ]
      },
      "properties": {
        "stop_id": 12002512,
        "stop_code": "ICT0410",
        "stop_name": "Nashmir Car Park",
        "route_id": "30000065"
      }
    }
  ]
}