{
  "type": "FeatureCollection",
  "features": [
    {
      "type": "Feature",
      "geometry": {
        "type": "Point",
        "coordinates": [
          100.3422281,
          5.414174
        ]
      },
      "properties": {
        "stop_id": 12002113,
        "stop_code": "IKI2054",
        "stop_name": "(M1) JETTY A",
        "route_id": "30000019"
      }
    },
    {
      "type": "Feature",
      "geometry": {
        "type": "Point",
        "coordinates": [
          100.34042,
          5.41415
        ]
      },
      "properties": {
        "stop_id": 12000007,
        "stop_code": "I0D0007",
        "stop_name": "Container Hotel",
        "route_id": "30000019"
      }
    },
    {
      "type": "Feature",
      "geometry": {
        "type": "Point",
        "coordinates": [
          100.33892,
          5.41602
        ]
      },
      "properties": {
        "stop_id": 12001916,
        "stop_code": "IIP1916",
        "stop_name": "Restoran Kapitan",
        "route_id": "30000019"
      }
    },
    {
      "type": "Feature",
      "geometry": {
        "type": "Point",
        "coordinates": [
          100.33669,
          5.41606
        ]
      },
      "properties": {
        "stop_id": 12000610,
        "stop_code": "ICF0610",
        "stop_name": "Kampung Kolam",
        "route_id": "30000019"
      }
    },
    {
      "type": "Feature",
      "geometry": {
        "type": "Point",
        "coordinates": [
          100.33431999999999,
          5.41477
        ]
      },
      "properties": {
        "stop_id": 12001911,
        "stop_code": "IIO1911",
        "stop_name": "Lebuh Carnavon",
        "route_id": "30000019"
      }
    },
    {
      "type": "Feature",
      "geometry": {
        "type": "Point",
        "coordinates": [
          100.33094,
          5.41378
        ]
      },
      "properties": {
        "stop_id": 12001937,
        "stop_code": "IIV1937",
        "stop_name": "Komtar",
        "route_id": "30000019"
      }
    },
    {
      "type": "Feature",
      "geometry": {
        "type": "Point",
        "coordinates": [
          100.33031319999999,
          5.4141808
        ]
      },
      "properties": {
        "stop_id": 12002116,
        "stop_code": "IFW1356",
        "stop_name": "Terminal Komtar",
        "route_id": "30000019"
      }
    },
    {
      "type": "Feature",
      "geometry": {
        "type": "Point",
        "coordinates": [
          100.32819,
          5.4115
        ]
      },
      "properties": {
        "stop_id": 12000530,
        "stop_code": "IBP0530",
        "stop_name": "Jalan Gudrwara",
        "route_id": "30000019"
      }
    },
    {
      "type": "Feature",
      "geometry": {
        "type": "Point",
        "coordinates": [
          100.32831999999999,
          5.40688
        ]
      },
      "properties": {
        "stop_id": 12001941,
        "stop_code": "IIX1941",
        "stop_name": "Pasar Lebuh Cecil",
        "route_id": "30000019"
      }
    },
    {
      "type": "Feature",
      "geometry": {
        "type": "Point",
        "coordinates": [
          100.32574,
          5.40331
        ]
      },
      "properties": {
        "stop_id": 12000580,
        "stop_code": "ICA0580",
        "stop_name": "Apartmen Desa Selatan",
        "route_id": "30000019"
      }
    },
    {
      "type": "Feature",
      "geometry": {
        "type": "Point",
        "coordinates": [
          100.32306,
          5.40105
        ]
      },
      "properties": {
        "stop_id": 12000579,
        "stop_code": "ICA0579",
        "stop_name": "Peugeot Center",
        "route_id": "30000019"
      }
    },
    {
      "type": "Feature",
      "geometry": {
        "type": "Point",
        "coordinates": [
          100.320515,
          5.398549
        ]
      },
      "properties": {
        "stop_id": 12002314,
        "stop_code": "ICT0046",
        "stop_name": "Mutiara Vista",
        "route_id": "30000019"
      }
    },
    {
      "type": "Feature",
      "geometry": {
        "type": "Point",
        "coordinates": [
          100.31981999999999,
          5.397714
        ]
      },
      "properties": {
        "stop_id": 12000573,
        "stop_code": "ICA0573",
        "stop_name": "Maybank Jelutong",
        "route_id": "30000019"
      }
    },
    {
      "type": "Feature",
      "geometry": {
        "type": "Point",
        "coordinates": [
          100.3181,
          5.39617
        ]
      },
      "properties": {
        "stop_id": 12000571,
        "stop_code": "ICA0571",
        "stop_name": "Shell Jelutong",
        "route_id": "30000019"
      }
    },
    {
      "type": "Feature",
      "geometry": {
        "type": "Point",
        "coordinates": [
          100.31638000000001,
          5.3945099999999995
        ]
      },
      "properties": {
        "stop_id": 12000568,
        "stop_code": "ICA0568",
        "stop_name": "Taman Dato Syed Abbas",
        "route_id": "30000019"
      }
    },
    {
      "type": "Feature",
      "geometry": {
        "type": "Point",
        "coordinates": [
          100.31461,
          5.39272
        ]
      },
      "properties": {
        "stop_id": 12000584,
        "stop_code": "ICA0584",
        "stop_name": "Masjid Jelutong",
        "route_id": "30000019"
      }
    },
    {
      "type": "Feature",
      "geometry": {
        "type": "Point",
        "coordinates": [
          100.31296,
          5.389133999999999
        ]
      },
      "properties": {
        "stop_id": 12000567,
        "stop_code": "ICA0567",
        "stop_name": "Pekan Jelutong",
        "route_id": "30000019"
      }
    },
    {
      "type": "Feature",
      "geometry": {
        "type": "Point",
        "coordinates": [
          100.31258000000001,
          5.38662
        ]
      },
      "properties": {
        "stop_id": 12000582,
        "stop_code": "ICA0582",
        "stop_name": "(M3) Pejabat Pos Jelutong",
        "route_id": "30000019"
      }
    },
    {
      "type": "Feature",
      "geometry": {
        "type": "Point",
        "coordinates": [
          100.31048,
          5.385280000000001
        ]
      },
      "properties": {
        "stop_id": 12000581,
        "stop_code": "ICA0581",
        "stop_name": "Bukit Dumbar",
        "route_id": "30000019"
      }
    },
    {
      "type": "Feature",
      "geometry": {
        "type": "Point",
        "coordinates": [
          100.3084,
          5.37593
        ]
      },
      "properties": {
        "stop_id": 12001458,
        "stop_code": "IGR1458",
        "stop_name": "(M2) RECSAM",
        "route_id": "30000019"
      }
    },
    {
      "type": "Feature",
      "geometry": {
        "type": "Point",
        "coordinates": [
          100.30944000000001,
          5.37239
        ]
      },
      "properties": {
        "stop_id": 12001456,
        "stop_code": "IGR1456",
        "stop_name": "Astaka Gelugor",
        "route_id": "30000019"
      }
    },
    {
      "type": "Feature",
      "geometry": {
        "type": "Point",
        "coordinates": [
          100.31026,
          5.36943
        ]
      },
      "properties": {
        "stop_id": 12001454,
        "stop_code": "IGR1454",
        "stop_name": "BSN Gelugor",
        "route_id": "30000019"
      }
    },
    {
      "type": "Feature",
      "geometry": {
        "type": "Point",
        "coordinates": [
          100.31078000000001,
          5.366709999999999
        ]
      },
      "properties": {
        "stop_id": 12001453,
        "stop_code": "IGR1453",
        "stop_name": "Restoran Kampung Ku",
        "route_id": "30000019"
      }
    },
    {
      "type": "Feature",
      "geometry": {
        "type": "Point",
        "coordinates": [
          100.31125,
          5.363169999999999
        ]
      },
      "properties": {
        "stop_id": 12001451,
        "stop_code": "IGR1451",
        "stop_name": "SK Sungai Gelugor",
        "route_id": "30000019"
      }
    },
    {
      "type": "Feature",
      "geometry": {
        "type": "Point",
        "coordinates": [
          100.30856,
          5.3545
        ]
      },
      "properties": {
        "stop_id": 12001449,
        "stop_code": "IGR1449",
        "stop_name": "Jejantas Batu Uban",
        "route_id": "30000019"
      }
    },
    {
      "type": "Feature",
      "geometry": {
        "type": "Point",
        "coordinates": [
          100.30371629999999,
          5.348064900000001
        ]
      },
      "properties": {
        "stop_id": 12002205,
        "stop_code": "IGR1500",
        "stop_name": "Klinik Rakyat",
        "route_id": "30000019"
      }
    },
    {
      "type": "Feature",
      "geometry": {
        "type": "Point",
        "coordinates": [
          100.30273000000001,
          5.34581
        ]
      },
      "properties": {
        "stop_id": 12001444,
        "stop_code": "IGR1444",
        "stop_name": "(M3) Tapak Pesta Sg Nibong",
        "route_id": "30000019"
      }
    },
    {
      "type": "Feature",
      "geometry": {
        "type": "Point",
        "coordinates": [
          100.30105999999999,
          5.3429400000000005
        ]
      },
      "properties": {
        "stop_id": 12001442,
        "stop_code": "IGR1442",
        "stop_name": "Terminal Bas Ekpress Sg Nibong",
        "route_id": "30000019"
      }
    },
    {
      "type": "Feature",
      "geometry": {
        "type": "Point",
        "coordinates": [
          100.30033,
          5.3415300000000006
        ]
      },
      "properties": {
        "stop_id": 12001440,
        "stop_code": "IGR1440",
        "stop_name": "Sungai Nibong Besar",
        "route_id": "30000019"
      }
    },
    {
      "type": "Feature",
      "geometry": {
        "type": "Point",
        "coordinates": [
          100.29911,
          5.338830000000001
        ]
      },
      "properties": {
        "stop_id": 12001438,
        "stop_code": "IGR1438",
        "stop_name": "SK Sungai Nibong",
        "route_id": "30000019"
      }
    },
    {
      "type": "Feature",
      "geometry": {
        "type": "Point",
        "coordinates": [
          100.29729,
          5.33561
        ]
      },
      "properties": {
        "stop_id": 12001434,
        "stop_code": "IGR1434",
        "stop_name": "SRJK Kwang Hwa",
        "route_id": "30000019"
      }
    },
    {
      "type": "Feature",
      "geometry": {
        "type": "Point",
        "coordinates": [
          100.29436,
          5.32956
        ]
      },
      "properties": {
        "stop_id": 12001433,
        "stop_code": "IGR1433",
        "stop_name": "Petronas Kampung Jawa",
        "route_id": "30000019"
      }
    },
    {
      "type": "Feature",
      "geometry": {
        "type": "Point",
        "coordinates": [
          100.29028000000001,
          5.32164
        ]
      },
      "properties": {
        "stop_id": 12001431,
        "stop_code": "IGR1431",
        "stop_name": "PSDC",
        "route_id": "30000019"
      }
    },
    {
      "type": "Feature",
      "geometry": {
        "type": "Point",
        "coordinates": [
          100.28609,
          5.31388
        ]
      },
      "properties": {
        "stop_id": 12001426,
        "stop_code": "IGR1426",
        "stop_name": "Snake Temple",
        "route_id": "30000019"
      }
    },
    {
      "type": "Feature",
      "geometry": {
        "type": "Point",
        "coordinates": [
          100.28236,
          5.30821
        ]
      },
      "properties": {
        "stop_id": 12001424,
        "stop_code": "IGR1424",
        "stop_name": "Kilang Clarion",
        "route_id": "30000019"
      }
    },
    {
      "type": "Feature",
      "geometry": {
        "type": "Point",
        "coordinates": [
          100.2761,
          5.30216
        ]
      },
      "properties": {
        "stop_id": 12001420,
        "stop_code": "IGR1420",
        "stop_name": "Sungai Tiram",
        "route_id": "30000019"
      }
    },
    {
      "type": "Feature",
      "geometry": {
        "type": "Point",
        "coordinates": [
          100.27025,
          5.29816
        ]
      },
      "properties": {
        "stop_id": 12001419,
        "stop_code": "IGR1419",
        "stop_name": "Chung Shan Chinese School",
        "route_id": "30000019"
      }
    },
    {
      "type": "Feature",
      "geometry": {
        "type": "Point",
        "coordinates": [
          100.2648269,
          5.292606
        ]
      },
      "properties": {
        "stop_id": 12002211,
        "stop_code": "IGR1417",
        "stop_name": "(M1) Lapangan Terbang Antarabangsa Pulau Pinang",
        "route_id": "30000019"
      }
    },
    {
      "type": "Feature",
      "geometry": {
        "type": "Point",
        "coordinates": [
          100.26250999999999,
          5.29525
        ]
      },
      "properties": {
        "stop_id": 12002254,
        "stop_code": "IKY2515",
        "stop_name": "Apartment Bayan Permai",
        "route_id": "30000019"
      }
    },
    {
      "type": "Feature",
      "geometry": {
        "type": "Point",
        "coordinates": [
          100.25771999999999,
          5.29411
        ]
      },
      "properties": {
        "stop_id": 12002255,
        "stop_code": "IKY2516",
        "stop_name": "Pekan Bayan Lepas",
        "route_id": "30000019"
      }
    },
    {
      "type": "Feature",
      "geometry": {
        "type": "Point",
        "coordinates": [
          100.25035,
          5.291580000000001
        ]
      },
      "properties": {
        "stop_id": 12002305,
        "stop_code": "ICT0035",
        "stop_name": "Saujana Height",
        "route_id": "30000019"
      }
    },
    {
      "type": "Feature",
      "geometry": {
        "type": "Point",
        "coordinates": [
          100.2473,
          5.28865
        ]
      },
      "properties": {
        "stop_id": 12002306,
        "stop_code": "ICT0036",
        "stop_name": "Teluk Kumbar Height",
        "route_id": "30000019"
      }
    },
    {
      "type": "Feature",
      "geometry": {
        "type": "Point",
        "coordinates": [
          100.241,
          5.28632
        ]
      },
      "properties": {
        "stop_id": 12001771,
        "stop_code": "IHQ1771",
        "stop_name": "Masjid Sungai Batu",
        "route_id": "30000019"
      }
    },
    {
      "type": "Feature",
      "geometry": {
        "type": "Point",
        "coordinates": [
          100.23682,
          5.2864
        ]
      },
      "properties": {
        "stop_id": 12001772,
        "stop_code": "IHQ1772",
        "stop_name": "Flat Taman Emas Sungai Batu",
        "route_id": "30000019"
      }
    },
    {
      "type": "Feature",
      "geometry": {
        "type": "Point",
        "coordinates": [
          100.23263,
          5.28745
        ]
      },
      "properties": {
        "stop_id": 12002307,
        "stop_code": "ICT0037",
        "stop_name": "Pekan Teluk Kumbar",
        "route_id": "30000019"
      }
    },
    {
      "type": "Feature",
      "geometry": {
        "type": "Point",
        "coordinates": [
          100.23249,
          5.29114
        ]
      },
      "properties": {
        "stop_id": 12001782,
        "stop_code": "IHQ1782",
        "stop_name": "SK Teluk Kumbar",
        "route_id": "30000019"
      }
    },
    {
      "type": "Feature",
      "geometry": {
        "type": "Point",
        "coordinates": [
          100.23228,
          5.293231
        ]
      },
      "properties": {
        "stop_id": 12002553,
        "stop_code": "ICT8000",
        "stop_name": "Bandar Baru Perda",
        "route_id": "30000019"
      }
    },
    {
      "type": "Feature",
      "geometry": {
        "type": "Point",
        "coordinates": [
          100.23228,
          5.29606
        ]
      },
      "properties": {
        "stop_id": 12001784,
        "stop_code": "IHQ1784",
        "stop_name": "Hentian Kampung Bukit",
        "route_id": "30000019"
      }
    },
    {
      "type": "Feature",
      "geometry": {
        "type": "Point",
        "coordinates": [
          100.23174,
          5.30122
        ]
      },
      "properties": {
        "stop_id": 12001787,
        "stop_code": "IHQ1787",
        "stop_name": "PUSPAKOM",
        "route_id": "30000019"
      }
    },
    {
      "type": "Feature",
      "geometry": {
        "type": "Point",
        "coordinates": [
          100.23201999999999,
          5.29946
        ]
      },
      "properties": {
        "stop_id": 12001786,
        "stop_code": "IHQ1786",
        "stop_name": "Kampung Matahari Naik",
        "route_id": "30000019"
      }
    },
    {
      "type": "Feature",
      "geometry": {
        "type": "Point",
        "coordinates": [
          100.23239000000001,
          5.29662
        ]
      },
      "properties": {
        "stop_id": 12001785,
        "stop_code": "IHQ1785",
        "stop_name": "Hentian Kampung Bukit",
        "route_id": "30000019"
      }
    },
    {
      "type": "Feature",
      "geometry": {
        "type": "Point",
        "coordinates": [
          100.23231,
          5.294015
        ]
      },
      "properties": {
        "stop_id": 12001783,
        "stop_code": "IHQ1783",
        "stop_name": "Bandar Baru Teluk Kumbar",
        "route_id": "30000019"
      }
    },
    {
      "type": "Feature",
      "geometry": {
        "type": "Point",
        "coordinates": [
          100.2326,
          5.29041
        ]
      },
      "properties": {
        "stop_id": 12001780,
        "stop_code": "IHQ1780",
        "stop_name": "SK Teluk Kumbar",
        "route_id": "30000019"
      }
    },
    {
      "type": "Feature",
      "geometry": {
        "type": "Point",
        "coordinates": [
          100.23383000000001,
          5.28696
        ]
      },
      "properties": {
        "stop_id": 12001776,
        "stop_code": "IHQ1776",
        "stop_name": "Hotel Grand Lexis",
        "route_id": "30000019"
      }
    },
    {
      "type": "Feature",
      "geometry": {
        "type": "Point",
        "coordinates": [
          100.23472,
          5.286649
        ]
      },
      "properties": {
        "stop_id": 12001775,
        "stop_code": "IHQ1775",
        "stop_name": "Restoran Sri Anjung Ikan Bakar",
        "route_id": "30000019"
      }
    },
    {
      "type": "Feature",
      "geometry": {
        "type": "Point",
        "coordinates": [
          100.23697,
          5.28641
        ]
      },
      "properties": {
        "stop_id": 12001774,
        "stop_code": "IHQ1774",
        "stop_name": "Flat Taman Emas Sungai Batu",
        "route_id": "30000019"
      }
    },
    {
      "type": "Feature",
      "geometry": {
        "type": "Point",
        "coordinates": [
          100.241,
          5.2864
        ]
      },
      "properties": {
        "stop_id": 12001773,
        "stop_code": "IHQ1773",
        "stop_name": "SMK Teluk Kumbar",
        "route_id": "30000019"
      }
    },
    {
      "type": "Feature",
      "geometry": {
        "type": "Point",
        "coordinates": [
          100.24884,
          5.28949
        ]
      },
      "properties": {
        "stop_id": 12001779,
        "stop_code": "IHQ1779",
        "stop_name": "Saujana Heights",
        "route_id": "30000019"
      }
    },
    {
      "type": "Feature",
      "geometry": {
        "type": "Point",
        "coordinates": [
          100.25861,
          5.294630000000001
        ]
      },
      "properties": {
        "stop_id": 12002256,
        "stop_code": "IKY2517",
        "stop_name": "Pekan Bayan Lepas",
        "route_id": "30000019"
      }
    },
    {
      "type": "Feature",
      "geometry": {
        "type": "Point",
        "coordinates": [
          100.26241999999999,
          5.2956199999999995
        ]
      },
      "properties": {
        "stop_id": 12000247,
        "stop_code": "IAG0247",
        "stop_name": "Apartment Bayan Permai",
        "route_id": "30000019"
      }
    },
    {
      "type": "Feature",
      "geometry": {
        "type": "Point",
        "coordinates": [
          100.266912,
          5.301474
        ]
      },
      "properties": {
        "stop_id": 12002615,
        "stop_code": "ICT1112",
        "stop_name": "Ideal One Resident",
        "route_id": "30000019"
      }
    },
    {
      "type": "Feature",
      "geometry": {
        "type": "Point",
        "coordinates": [
          100.26698499999999,
          5.299314
        ]
      },
      "properties": {
        "stop_id": 12002616,
        "stop_code": "ICT1113",
        "stop_name": "Ideal Summer Skye Square",
        "route_id": "30000019"
      }
    },
    {
      "type": "Feature",
      "geometry": {
        "type": "Point",
        "coordinates": [
          100.26985,
          5.298109999999999
        ]
      },
      "properties": {
        "stop_id": 12001418,
        "stop_code": "IGR1418",
        "stop_name": "The Star Publication",
        "route_id": "30000019"
      }
    },
    {
      "type": "Feature",
      "geometry": {
        "type": "Point",
        "coordinates": [
          100.27651,
          5.302697
        ]
      },
      "properties": {
        "stop_id": 12001422,
        "stop_code": "IGR1422",
        "stop_name": "Sungai Tiram",
        "route_id": "30000019"
      }
    },
    {
      "type": "Feature",
      "geometry": {
        "type": "Point",
        "coordinates": [
          100.27917,
          5.30481
        ]
      },
      "properties": {
        "stop_id": 12001423,
        "stop_code": "IGR1423",
        "stop_name": "Dynacraft Industries Sdn. Bhd.",
        "route_id": "30000019"
      }
    },
    {
      "type": "Feature",
      "geometry": {
        "type": "Point",
        "coordinates": [
          100.28226,
          5.3083800000000005
        ]
      },
      "properties": {
        "stop_id": 12001425,
        "stop_code": "IGR1425",
        "stop_name": "B Braun",
        "route_id": "30000019"
      }
    },
    {
      "type": "Feature",
      "geometry": {
        "type": "Point",
        "coordinates": [
          100.28605,
          5.314244
        ]
      },
      "properties": {
        "stop_id": 12001427,
        "stop_code": "IGR1427",
        "stop_name": "Snake Temple",
        "route_id": "30000019"
      }
    },
    {
      "type": "Feature",
      "geometry": {
        "type": "Point",
        "coordinates": [
          100.28914,
          5.320189
        ]
      },
      "properties": {
        "stop_id": 12001460,
        "stop_code": "IGR1460",
        "stop_name": "Taman Sri Tunas",
        "route_id": "30000019"
      }
    },
    {
      "type": "Feature",
      "geometry": {
        "type": "Point",
        "coordinates": [
          100.29335999999999,
          5.32846
        ]
      },
      "properties": {
        "stop_id": 12001432,
        "stop_code": "IGR1432",
        "stop_name": "Taman Mahsuri",
        "route_id": "30000019"
      }
    },
    {
      "type": "Feature",
      "geometry": {
        "type": "Point",
        "coordinates": [
          100.29726,
          5.33615
        ]
      },
      "properties": {
        "stop_id": 12001435,
        "stop_code": "IGR1435",
        "stop_name": "SRJK Kwang Hwa",
        "route_id": "30000019"
      }
    },
    {
      "type": "Feature",
      "geometry": {
        "type": "Point",
        "coordinates": [
          100.29855,
          5.338055000000001
        ]
      },
      "properties": {
        "stop_id": 12001437,
        "stop_code": "IGR1437",
        "stop_name": "Ayamas Sg. Nibong",
        "route_id": "30000019"
      }
    },
    {
      "type": "Feature",
      "geometry": {
        "type": "Point",
        "coordinates": [
          100.29935,
          5.340112
        ]
      },
      "properties": {
        "stop_id": 12001439,
        "stop_code": "IGR1439",
        "stop_name": "Masjid Jamek Sg Nibong",
        "route_id": "30000019"
      }
    },
    {
      "type": "Feature",
      "geometry": {
        "type": "Point",
        "coordinates": [
          100.3003478,
          5.342838700000001
        ]
      },
      "properties": {
        "stop_id": 12002139,
        "stop_code": "IGR2127",
        "stop_name": "Terminal Bas Ekspres Sg Nibong",
        "route_id": "30000019"
      }
    },
    {
      "type": "Feature",
      "geometry": {
        "type": "Point",
        "coordinates": [
          100.30175,
          5.34478
        ]
      },
      "properties": {
        "stop_id": 12001443,
        "stop_code": "IGR1443",
        "stop_name": "Tapak Pesta Sg Nibong",
        "route_id": "30000019"
      }
    },
    {
      "type": "Feature",
      "geometry": {
        "type": "Point",
        "coordinates": [
          100.30336,
          5.3477
        ]
      },
      "properties": {
        "stop_id": 12001445,
        "stop_code": "IGR1445",
        "stop_name": "Taman Century",
        "route_id": "30000019"
      }
    },
    {
      "type": "Feature",
      "geometry": {
        "type": "Point",
        "coordinates": [
          100.30429000000001,
          5.35133
        ]
      },
      "properties": {
        "stop_id": 12001446,
        "stop_code": "IGR1446",
        "stop_name": "JPJ Batu Uban",
        "route_id": "30000019"
      }
    },
    {
      "type": "Feature",
      "geometry": {
        "type": "Point",
        "coordinates": [
          100.30504659999998,
          5.3524151
        ]
      },
      "properties": {
        "stop_id": 12002207,
        "stop_code": "IGR1461",
        "stop_name": "Sekolah Memandu Batu Uban",
        "route_id": "30000019"
      }
    },
    {
      "type": "Feature",
      "geometry": {
        "type": "Point",
        "coordinates": [
          100.30793,
          5.35418
        ]
      },
      "properties": {
        "stop_id": 12001448,
        "stop_code": "IGR1448",
        "stop_name": "Jejantas Batu Uban",
        "route_id": "30000019"
      }
    },
    {
      "type": "Feature",
      "geometry": {
        "type": "Point",
        "coordinates": [
          100.31049,
          5.35994
        ]
      },
      "properties": {
        "stop_id": 12001450,
        "stop_code": "IGR1450",
        "stop_name": "Padang Bola USM",
        "route_id": "30000019"
      }
    },
    {
      "type": "Feature",
      "geometry": {
        "type": "Point",
        "coordinates": [
          100.31097,
          5.36497
        ]
      },
      "properties": {
        "stop_id": 12001452,
        "stop_code": "IGR1452",
        "stop_name": "SK Sg. Gelugor",
        "route_id": "30000019"
      }
    },
    {
      "type": "Feature",
      "geometry": {
        "type": "Point",
        "coordinates": [
          100.31005,
          5.3697099999999995
        ]
      },
      "properties": {
        "stop_id": 12001455,
        "stop_code": "IGR1455",
        "stop_name": "Maybank Gelugor",
        "route_id": "30000019"
      }
    },
    {
      "type": "Feature",
      "geometry": {
        "type": "Point",
        "coordinates": [
          100.30903,
          5.3727800000000006
        ]
      },
      "properties": {
        "stop_id": 12001457,
        "stop_code": "IGR1457",
        "stop_name": "KTM Motor",
        "route_id": "30000019"
      }
    },
    {
      "type": "Feature",
      "geometry": {
        "type": "Point",
        "coordinates": [
          100.30803,
          5.37671
        ]
      },
      "properties": {
        "stop_id": 12001459,
        "stop_code": "IGR1459",
        "stop_name": "Recsam",
        "route_id": "30000019"
      }
    },
    {
      "type": "Feature",
      "geometry": {
        "type": "Point",
        "coordinates": [
          100.31156999999999,
          5.38595
        ]
      },
      "properties": {
        "stop_id": 12000565,
        "stop_code": "ICA0565",
        "stop_name": "Bukit Dumbar",
        "route_id": "30000019"
      }
    },
    {
      "type": "Feature",
      "geometry": {
        "type": "Point",
        "coordinates": [
          100.3127,
          5.3879
        ]
      },
      "properties": {
        "stop_id": 12000566,
        "stop_code": "ICA0566",
        "stop_name": "Pekan Jelutong",
        "route_id": "30000019"
      }
    },
    {
      "type": "Feature",
      "geometry": {
        "type": "Point",
        "coordinates": [
          100.31354,
          5.392361
        ]
      },
      "properties": {
        "stop_id": 12001069,
        "stop_code": "IEX1069",
        "stop_name": "Asrama Munshi",
        "route_id": "30000019"
      }
    },
    {
      "type": "Feature",
      "geometry": {
        "type": "Point",
        "coordinates": [
          100.31424,
          5.3939
        ]
      },
      "properties": {
        "stop_id": 12001070,
        "stop_code": "IEX1070",
        "stop_name": "Sunshine Jelutong",
        "route_id": "30000019"
      }
    },
    {
      "type": "Feature",
      "geometry": {
        "type": "Point",
        "coordinates": [
          100.31466999999999,
          5.39527
        ]
      },
      "properties": {
        "stop_id": 12001071,
        "stop_code": "IEX1071",
        "stop_name": "Old Town Caf√©",
        "route_id": "30000019"
      }
    },
    {
      "type": "Feature",
      "geometry": {
        "type": "Point",
        "coordinates": [
          100.31751,
          5.39582
        ]
      },
      "properties": {
        "stop_id": 12000570,
        "stop_code": "ICA0570",
        "stop_name": "(M2) Hong Leong Bank Jelutong",
        "route_id": "30000019"
      }
    },
    {
      "type": "Feature",
      "geometry": {
        "type": "Point",
        "coordinates": [
          100.31896,
          5.39701
        ]
      },
      "properties": {
        "stop_id": 12000572,
        "stop_code": "ICA0572",
        "stop_name": "Taman Cemerlang",
        "route_id": "30000019"
      }
    },
    {
      "type": "Feature",
      "geometry": {
        "type": "Point",
        "coordinates": [
          100.31989,
          5.3979
        ]
      },
      "properties": {
        "stop_id": 12000575,
        "stop_code": "ICA0575",
        "stop_name": "Maybank Jelutong",
        "route_id": "30000019"
      }
    },
    {
      "type": "Feature",
      "geometry": {
        "type": "Point",
        "coordinates": [
          100.3222,
          5.4004199999999996
        ]
      },
      "properties": {
        "stop_id": 12000576,
        "stop_code": "ICA0576",
        "stop_name": "SJK(C) MOH GHEE Cawangan",
        "route_id": "30000019"
      }
    },
    {
      "type": "Feature",
      "geometry": {
        "type": "Point",
        "coordinates": [
          100.32297,
          5.40265
        ]
      },
      "properties": {
        "stop_id": 12001585,
        "stop_code": "IHA1585",
        "stop_name": "Sungai Pinang",
        "route_id": "30000019"
      }
    },
    {
      "type": "Feature",
      "geometry": {
        "type": "Point",
        "coordinates": [
          100.32143,
          5.40585
        ]
      },
      "properties": {
        "stop_id": 12000991,
        "stop_code": "IEO0991",
        "stop_name": "Apartmen Taman Seri Petani",
        "route_id": "30000019"
      }
    },
    {
      "type": "Feature",
      "geometry": {
        "type": "Point",
        "coordinates": [
          100.32298,
          5.406219999999999
        ]
      },
      "properties": {
        "stop_id": 12001903,
        "stop_code": "IIL1903",
        "stop_name": "Apartmen Taman Sri Pinang",
        "route_id": "30000019"
      }
    },
    {
      "type": "Feature",
      "geometry": {
        "type": "Point",
        "coordinates": [
          100.3247,
          5.407030000000001
        ]
      },
      "properties": {
        "stop_id": 12001462,
        "stop_code": "IGS1462",
        "stop_name": "Flat PPR Jalan Sungai",
        "route_id": "30000019"
      }
    },
    {
      "type": "Feature",
      "geometry": {
        "type": "Point",
        "coordinates": [
          100.327675,
          5.407838
        ]
      },
      "properties": {
        "stop_id": 12000529,
        "stop_code": "IBP0529",
        "stop_name": "Persimpangan Jalan S.P Chelliah",
        "route_id": "30000019"
      }
    },
    {
      "type": "Feature",
      "geometry": {
        "type": "Point",
        "coordinates": [
          100.33043599999999,
          5.41122
        ]
      },
      "properties": {
        "stop_id": 12002993,
        "stop_code": "IIX1942",
        "stop_name": "Presgrave Corner",
        "route_id": "30000019"
      }
    },
    {
      "type": "Feature",
      "geometry": {
        "type": "Point",
        "coordinates": [
          100.33328,
          5.41424
        ]
      },
      "properties": {
        "stop_id": 12001910,
        "stop_code": "IIO1910",
        "stop_name": "Lebuh Carnavon",
        "route_id": "30000019"
      }
    },
    {
      "type": "Feature",
      "geometry": {
        "type": "Point",
        "coordinates": [
          100.335,
          5.415494
        ]
      },
      "properties": {
        "stop_id": 12001915,
        "stop_code": "IIO1915",
        "stop_name": "Hotel Armenian",
        "route_id": "30000019"
      }
    },
    {
      "type": "Feature",
      "geometry": {
        "type": "Point",
        "coordinates": [
          100.33646999999999,
          5.41614
        ]
      },
      "properties": {
        "stop_id": 12000611,
        "stop_code": "ICF0611",
        "stop_name": "Kampung Kolam",
        "route_id": "30000019"
      }
    },
    {
      "type": "Feature",
      "geometry": {
        "type": "Point",
        "coordinates": [
          100.33854000000001,
          5.4164699999999995
        ]
      },
      "properties": {
        "stop_id": 12001917,
        "stop_code": "IIP1917",
        "stop_name": "Little India",
        "route_id": "30000019"
      }
    },
    {
      "type": "Feature",
      "geometry": {
        "type": "Point",
        "coordinates": [
          100.34045,
          5.4142
        ]
      },
      "properties": {
        "stop_id": 12002318,
        "stop_code": "ICT0052",
        "stop_name": "Container Hotel",
        "route_id": "30000019"
      }
    },
    {
      "type": "Feature",
      "geometry": {
        "type": "Point",
        "coordinates": [
          100.34186600000001,
          5.414516000000001
        ]
      },
      "properties": {
        "stop_id": 12002056,
        "stop_code": "IKI2056",
        "stop_name": "Jejantas Terminal Feri",
        "route_id": "30000019"
      }
    },
    {
      "type": "Feature",
      "geometry": {
        "type": "Point",
        "coordinates": [
          100.34428,
          5.41721
        ]
      },
      "properties": {
        "stop_id": 12002058,
        "stop_code": "IKI2058",
        "stop_name": "Pejabat Pos Besar P.Pinang",
        "route_id": "30000019"
      }
    },
    {
      "type": "Feature",
      "geometry": {
        "type": "Point",
        "coordinates": [
          100.3436892,
          5.4180154
        ]
      },
      "properties": {
        "stop_id": 12002971,
        "stop_code": "IIR1926",
        "stop_name": "Pejabat Pos Besar P.Pinang 1",
        "route_id": "30000019"
      }
    },
    {
      "type": "Feature",
      "geometry": {
        "type": "Point",
        "coordinates": [
          100.34356,
          5.418646
        ]
      },
      "properties": {
        "stop_id": 12001943,
        "stop_code": "IIZ1943",
        "stop_name": "Balai Polis",
        "route_id": "30000019"
      }
    },
    {
      "type": "Feature",
      "geometry": {
        "type": "Point",
        "coordinates": [
          100.34508129999999,
          5.4185041
        ]
      },
      "properties": {
        "stop_id": 12002972,
        "stop_code": "IIR1927",
        "stop_name": "Swettenham Pier Cruise Terminal",
        "route_id": "30000019"
      }
    },
    {
      "type": "Feature",
      "geometry": {
        "type": "Point",
        "coordinates": [
          100.34413,
          5.41664
        ]
      },
      "properties": {
        "stop_id": 12002057,
        "stop_code": "IKI2057",
        "stop_name": "Church Street Pier",
        "route_id": "30000019"
      }
    }
  ]
}