{
  "type": "FeatureCollection",
  "features": [
    {
      "type": "Feature",
      "geometry": {
        "type": "Point",
        "coordinates": [
          100.462624,
          5.3657975
        ]
      },
      "properties": {
        "stop_id": 12002201,
        "stop_code": "MOO0056",
        "stop_name": "(M1) The Summit",
        "route_id": "30000117"
      }
    },
    {
      "type": "Feature",
      "geometry": {
        "type": "Point",
        "coordinates": [
          100.45875,
          5.36519
        ]
      },
      "properties": {
        "stop_id": 12000906,
        "stop_code": "MDZ0906",
        "stop_name": "Kamdar",
        "route_id": "30000117"
      }
    },
    {
      "type": "Feature",
      "geometry": {
        "type": "Point",
        "coordinates": [
          100.45826,
          5.3666
        ]
      },
      "properties": {
        "stop_id": 12000907,
        "stop_code": "MDZ0907",
        "stop_name": "Plaza Utama",
        "route_id": "30000117"
      }
    },
    {
      "type": "Feature",
      "geometry": {
        "type": "Point",
        "coordinates": [
          100.455235,
          5.368673
        ]
      },
      "properties": {
        "stop_id": 12002320,
        "stop_code": "ICT0057",
        "stop_name": "Sunway Wellesley",
        "route_id": "30000117"
      }
    },
    {
      "type": "Feature",
      "geometry": {
        "type": "Point",
        "coordinates": [
          100.45022,
          5.36892
        ]
      },
      "properties": {
        "stop_id": 12001221,
        "stop_code": "MFI1221",
        "stop_name": "Kampung Permatang Rawa",
        "route_id": "30000117"
      }
    },
    {
      "type": "Feature",
      "geometry": {
        "type": "Point",
        "coordinates": [
          100.448113,
          5.368924
        ]
      },
      "properties": {
        "stop_id": 12003015,
        "stop_code": "ICT0A81",
        "stop_name": "KTM Bukit Mertajam",
        "route_id": "30000117"
      }
    },
    {
      "type": "Feature",
      "geometry": {
        "type": "Point",
        "coordinates": [
          100.44541,
          5.3686
        ]
      },
      "properties": {
        "stop_id": 12001220,
        "stop_code": "MFI1220",
        "stop_name": "Caltex Permatang Rawa",
        "route_id": "30000117"
      }
    },
    {
      "type": "Feature",
      "geometry": {
        "type": "Point",
        "coordinates": [
          100.435744,
          5.366926
        ]
      },
      "properties": {
        "stop_id": 12002346,
        "stop_code": "ICT0083",
        "stop_name": "Bank Rakyat Perda",
        "route_id": "30000117"
      }
    },
    {
      "type": "Feature",
      "geometry": {
        "type": "Point",
        "coordinates": [
          100.43189,
          5.36426
        ]
      },
      "properties": {
        "stop_id": 12001101,
        "stop_code": "MFB1101",
        "stop_name": "Permatang Batu",
        "route_id": "30000117"
      }
    },
    {
      "type": "Feature",
      "geometry": {
        "type": "Point",
        "coordinates": [
          100.4297,
          5.36447
        ]
      },
      "properties": {
        "stop_id": 12001102,
        "stop_code": "MFB1102",
        "stop_name": "Petron Permatang Batu",
        "route_id": "30000117"
      }
    },
    {
      "type": "Feature",
      "geometry": {
        "type": "Point",
        "coordinates": [
          100.426927,
          5.36458
        ]
      },
      "properties": {
        "stop_id": 12002347,
        "stop_code": "ICT0084",
        "stop_name": "Allagapas",
        "route_id": "30000117"
      }
    },
    {
      "type": "Feature",
      "geometry": {
        "type": "Point",
        "coordinates": [
          100.42163000000001,
          5.36632
        ]
      },
      "properties": {
        "stop_id": 12000183,
        "stop_code": "MAA0183",
        "stop_name": "Taman Bunga Raya",
        "route_id": "30000117"
      }
    },
    {
      "type": "Feature",
      "geometry": {
        "type": "Point",
        "coordinates": [
          100.4194,
          5.36751
        ]
      },
      "properties": {
        "stop_id": 12000184,
        "stop_code": "MAA0184",
        "stop_name": "SK Jalan Baru",
        "route_id": "30000117"
      }
    },
    {
      "type": "Feature",
      "geometry": {
        "type": "Point",
        "coordinates": [
          100.41516999999999,
          5.36972
        ]
      },
      "properties": {
        "stop_id": 12000177,
        "stop_code": "MAA0177",
        "stop_name": "(M2) Mydin Mall",
        "route_id": "30000117"
      }
    },
    {
      "type": "Feature",
      "geometry": {
        "type": "Point",
        "coordinates": [
          100.41305,
          5.3709
        ]
      },
      "properties": {
        "stop_id": 12000178,
        "stop_code": "MAA0178",
        "stop_name": "Kampung Setol",
        "route_id": "30000117"
      }
    },
    {
      "type": "Feature",
      "geometry": {
        "type": "Point",
        "coordinates": [
          100.409622,
          5.372746
        ]
      },
      "properties": {
        "stop_id": 12002348,
        "stop_code": "ICT0090",
        "stop_name": "Masjid Kampung Setol",
        "route_id": "30000117"
      }
    },
    {
      "type": "Feature",
      "geometry": {
        "type": "Point",
        "coordinates": [
          100.39232,
          5.355802
        ]
      },
      "properties": {
        "stop_id": 12002108,
        "stop_code": "M002108",
        "stop_name": "Jambatan Pulau Pinang",
        "route_id": "30000117"
      }
    },
    {
      "type": "Feature",
      "geometry": {
        "type": "Point",
        "coordinates": [
          100.33031319999999,
          5.4141808
        ]
      },
      "properties": {
        "stop_id": 12002116,
        "stop_code": "IFW1356",
        "stop_name": "Terminal Komtar",
        "route_id": "30000117"
      }
    },
    {
      "type": "Feature",
      "geometry": {
        "type": "Point",
        "coordinates": [
          100.3319975,
          5.4126216
        ]
      },
      "properties": {
        "stop_id": 12002988,
        "stop_code": "IIL1950",
        "stop_name": "(M1) Hub Lebuh Carnavon",
        "route_id": "30000117"
      }
    },
    {
      "type": "Feature",
      "geometry": {
        "type": "Point",
        "coordinates": [
          100.39229,
          5.356566
        ]
      },
      "properties": {
        "stop_id": 12002109,
        "stop_code": "M002109",
        "stop_name": "Jambatan Pulau Pinang",
        "route_id": "30000117"
      }
    },
    {
      "type": "Feature",
      "geometry": {
        "type": "Point",
        "coordinates": [
          100.41006,
          5.37271
        ]
      },
      "properties": {
        "stop_id": 12000189,
        "stop_code": "MAA0189",
        "stop_name": "Masjid Jamek Kampung Setol",
        "route_id": "30000117"
      }
    },
    {
      "type": "Feature",
      "geometry": {
        "type": "Point",
        "coordinates": [
          100.41258,
          5.37137
        ]
      },
      "properties": {
        "stop_id": 12000188,
        "stop_code": "MAA0188",
        "stop_name": "Medan Perniagaan Pauh Jaya",
        "route_id": "30000117"
      }
    },
    {
      "type": "Feature",
      "geometry": {
        "type": "Point",
        "coordinates": [
          100.41549,
          5.36975
        ]
      },
      "properties": {
        "stop_id": 12000187,
        "stop_code": "MAA0187",
        "stop_name": "(M3) Mydin Mall",
        "route_id": "30000117"
      }
    },
    {
      "type": "Feature",
      "geometry": {
        "type": "Point",
        "coordinates": [
          100.41703000000001,
          5.36897
        ]
      },
      "properties": {
        "stop_id": 12000186,
        "stop_code": "MAA0186",
        "stop_name": "Kampung Jalan Baru",
        "route_id": "30000117"
      }
    },
    {
      "type": "Feature",
      "geometry": {
        "type": "Point",
        "coordinates": [
          100.41932,
          5.36774
        ]
      },
      "properties": {
        "stop_id": 12000185,
        "stop_code": "MAA0185",
        "stop_name": "Masjid Jalan Baru",
        "route_id": "30000117"
      }
    },
    {
      "type": "Feature",
      "geometry": {
        "type": "Point",
        "coordinates": [
          100.428157,
          5.364658
        ]
      },
      "properties": {
        "stop_id": 12002350,
        "stop_code": "ICT0092",
        "stop_name": "Masjid Permatang Batu",
        "route_id": "30000117"
      }
    },
    {
      "type": "Feature",
      "geometry": {
        "type": "Point",
        "coordinates": [
          100.43153000000001,
          5.36439
        ]
      },
      "properties": {
        "stop_id": 12001099,
        "stop_code": "MFB1099",
        "stop_name": "Permatang Batu",
        "route_id": "30000117"
      }
    },
    {
      "type": "Feature",
      "geometry": {
        "type": "Point",
        "coordinates": [
          100.43456,
          5.36494
        ]
      },
      "properties": {
        "stop_id": 12001100,
        "stop_code": "MFB1100",
        "stop_name": "Pusat Perniagaan Perda",
        "route_id": "30000117"
      }
    },
    {
      "type": "Feature",
      "geometry": {
        "type": "Point",
        "coordinates": [
          100.44489,
          5.36862
        ]
      },
      "properties": {
        "stop_id": 12001216,
        "stop_code": "MFI1216",
        "stop_name": "Pusat Perniagaan Permatang Rawa",
        "route_id": "30000117"
      }
    },
    {
      "type": "Feature",
      "geometry": {
        "type": "Point",
        "coordinates": [
          100.44688000000001,
          5.36891
        ]
      },
      "properties": {
        "stop_id": 12001218,
        "stop_code": "MFI1218",
        "stop_name": "SMK Permatang Rawa",
        "route_id": "30000117"
      }
    },
    {
      "type": "Feature",
      "geometry": {
        "type": "Point",
        "coordinates": [
          100.4496,
          5.36903
        ]
      },
      "properties": {
        "stop_id": 12001219,
        "stop_code": "MFI1219",
        "stop_name": "Petronas Permatang Rawa",
        "route_id": "30000117"
      }
    },
    {
      "type": "Feature",
      "geometry": {
        "type": "Point",
        "coordinates": [
          100.45274,
          5.36889
        ]
      },
      "properties": {
        "stop_id": 12001217,
        "stop_code": "MFI1217",
        "stop_name": "Permatang Rawa",
        "route_id": "30000117"
      }
    },
    {
      "type": "Feature",
      "geometry": {
        "type": "Point",
        "coordinates": [
          100.45774,
          5.368530000000001
        ]
      },
      "properties": {
        "stop_id": 12001215,
        "stop_code": "MFI1215",
        "stop_name": "Sunway Wellesley",
        "route_id": "30000117"
      }
    },
    {
      "type": "Feature",
      "geometry": {
        "type": "Point",
        "coordinates": [
          100.460003,
          5.366679
        ]
      },
      "properties": {
        "stop_id": 12002343,
        "stop_code": "ICT0080",
        "stop_name": "PBA Bukit Mertajam",
        "route_id": "30000117"
      }
    }
  ]
}